Name,Address,area,Rating,Reviews,price_index,Cuisine_Primary,Cuisine_Secondary,Fusion,competitors_within_500m,Footfall_Score,tourist_index,population_density_people_per_sqkm,avg_commercial_rent_aed_sqft_year,utility_cost_aed_month,utility_level,parking_score,has_valet,review_density,price_position_index,rating_zscore,engagement_proxy,location_attractiveness,rent_normalized,is_premium,is_budget,sentiment_mean,sentiment_std,positive_ratio,negative_ratio,review_momentum,growth_class,Latitude,Longitude,Place_ID
Joe's Café Dubai,"fashion Avenue First Floor, Dubai Mall Star Atrium - Gate 6 - Burj Khalifa - Downtown Dubai - Dubai - United Arab Emirates",Downtown Dubai,4.9,24431,2.0,cafe,,NO,44,40.0,100.0,3354.63671875,250.0,1788.0,High,4.0,0,29.866748166259168,0.9622641509433961,1.0009928559998849,555.25,0.9999999999825,0.7826086956487713,0,0,1.0,0.0,1.0,0.0,2.0,GROWING,25.196285,55.2774144,ChIJAQAAMChoXz4RuJzcBOap9Mk
Café De Paris - Best Shisha in Business Bay,Downtown - MAG 318 Residential Tower - الخليج التجاري - دبي - United Arab Emirates,Downtown Dubai,4.7,4057,2.0,french,cafe,YES,7,40.0,100.0,3305.975830078125,250.0,1788.0,High,3.0,1,4.959657701711492,0.9622641509433961,0.12080948262067528,579.5714285714286,0.9999999999825,0.7826086956487713,0,0,0.352,0.8692065347200284,0.6,0.2,2.0,GROWING,25.1905404,55.2837915,ChIJVa79xy5pXz4Rrj9ZfEWL19U
AVE Dubai,Dubai Fountain St 502 Empire Heights Tower A - الخليج التجاري - دبي - United Arab Emirates,Other,4.8,3615,2.0,cafe,,NO,9,40.0,100.0,3320.93310546875,,1788.0,High,4.0,1,11.261682242990654,0.994535519125683,0.6967114559876235,401.6666666666667,0.9999999999825,0.478260869563138,0,0,1.0,0.0,1.0,0.0,2.0,GROWING,25.1917607,55.284363400000004,ChIJtd5iPVRpXz4RCJWftl-3J9w
Late Lounge,Al Wasl Rd - Jumeirah - Jumeira Second - Dubai - United Arab Emirates,Jumeirah,4.8,4450,2.0,cafe,,NO,4,33.71,84.29,3299.60888671875,160.0,1506.94,High,3.0,0,4.289156626506024,0.972972972972973,0.7884759084922672,1112.5,0.8428249999852512,0.39130434782438567,0,0,0.0,0.0,0.5,0.1,1.0,STABLE,25.1951817,55.245112199999994,ChIJm9ICLvpDXz4RNwBQmCWeIHk
The Grey Al Wasl - Coffee Lounge & Bar,9A St - Al Wasl - Al Safa - Dubai - United Arab Emirates,Al Wasl,4.8,7284,2.0,cafe,,NO,0,38.29,95.71,3201.789794921875,140.0,1711.46,High,3.0,0,9.863236289776575,0.9523809523809523,0.5329820781841085,7284.0,0.9571749999832488,0.30434782608563327,0,0,0.96,0.08944271909999157,1.0,0.0,2.0,GROWING,25.1835149,55.238026700000006,ChIJJz9fS8RpXz4RmwpgK_W9i48
Forever Rose Cafe,Boxpark - 467 Al Wasl Rd - Al Wasl - Dubai - United Arab Emirates,Al Wasl,4.4,2935,2.0,cafe,,NO,2,36.57,91.43,3276.218994140625,140.0,1634.71,High,4.0,0,3.974272173324306,0.9523809523809523,0.18348563347321833,1467.5,0.9142749999840004,0.30434782608563327,0,0,0.9004999999999999,0.1405391404556041,1.0,0.0,2.0,GROWING,25.2008204,55.249831799999995,ChIJFYTWTXRDXz4RwiLDoaLI5aA
BRIX Café,Jumeirah Fishing Harbour - Shop 1 - Al Urouba St - Jumeirah - Jumeira First - Dubai - United Arab Emirates,Jumeirah,4.7,1366,2.0,cafe,dessert,YES,1,39.43,98.57,3302.758056640625,160.0,1762.49,High,1.0,0,1.3166265060240965,0.972972972972973,0.32314586413617635,1366.0,0.9857249999827495,0.39130434782438567,0,0,0.96,0.08944271909999157,1.0,0.0,2.0,GROWING,25.2099358,55.243971099999996,ChIJSdrs8a9DXz4R1r7Wu94z8fY
The Coffee Lab - Specialty Coffee Roasters,"B02, Marina Views - مدينة دبي الملاحية - ميناء راشد - دبي - United Arab Emirates",Dubai Marina,4.7,4136,2.0,cafe,dessert,YES,0,40.0,100.0,3303.979248046875,200.0,1788.0,High,2.0,0,4.929678188319428,1.0,0.10948978029027134,4136.0,0.9999999999825,0.5652173913018904,0,0,1.0,0.0,1.0,0.0,2.0,GROWING,25.2596551,55.2796297,ChIJDVOUxQxDXz4RbzzPZ9hhH7Y
Stomping Grounds,98 12D St - Jumeirah - Jumeirah 1 - Dubai - United Arab Emirates,Jumeirah,4.6,3831,2.0,cafe,,NO,3,40.0,100.0,3214.366943359375,160.0,1788.0,High,3.0,0,3.6925301204819276,0.972972972972973,-0.14218418021991874,1277.0,0.9999999999825,0.39130434782438567,0,0,1.0,0.0,1.0,0.0,2.0,GROWING,25.223111199999998,55.258158099999996,ChIJM_wSWUVCXz4Rv38p0x0McuQ
The Good Moon,416 Al Wasl Rd - Jumeirah - Jumeirah 2 - Dubai - United Arab Emirates,Jumeirah,4.8,1085,2.0,Unknown,,NO,3,40.0,100.0,3276.218994140625,160.0,1788.0,High,1.0,0,1.0457831325301206,0.972972972972973,0.7884759084922672,361.6666666666667,0.9999999999825,0.39130434782438567,0,0,0.9866666666666667,0.029814239699997202,1.0,0.0,2.0,GROWING,25.2054695,55.2522236,ChIJY3IEH3dDXz4Rn6z3jc0Hegk
Caffeine and Culture Cafe,In5 Design D3 - Zaa'beel Second - Dubai Design District - Dubai - United Arab Emirates,D3 Design District,4.8,1008,2.0,cafe,,NO,4,30.86,77.14,3297.1923828125,180.0,1379.37,Medium,2.0,0,0.9911504424778761,1.0,1.495905296639587,252.0,0.7714499999864992,0.478260869563138,0,0,0.9885454545454545,0.025613142287724922,1.0,0.0,2.0,GROWING,25.1847283,55.2980786,ChIJy3Up_nNpXz4RI8DOgrKOZrc
EL&N London - DIFC Dubai,"Unit 02, Gate Village Building 02 - زعبيل الثانية - DIFC - دبي - United Arab Emirates",DIFC,4.6,1272,3.0,cafe,,NO,7,40.0,100.0,3348.3896484375,220.0,1788.0,High,2.0,0,3.2615384615384615,1.0,0.1808664392783983,181.71428571428572,0.9999999999825,0.6521739130406428,1,0,0.6912571428571429,0.5574527929130237,0.8,0.2,4.0,GROWING,25.213512100000003,55.28238950000001,ChIJn1_C-TdDXz4Rv4hLRqwHZik
THE SUM OF US,"Ground Floor, Burj Al Salam, 6th Street - Trade Centre - Trade Center First - Dubai - United Arab Emirates",Other,4.4,2879,2.0,cafe,dessert,YES,3,40.0,100.0,3249.76318359375,,1788.0,High,3.0,1,8.968847352024921,0.994535519125683,-0.7692016652811299,959.6666666666666,0.9999999999825,0.478260869563138,0,0,1.0,0.0,1.0,0.0,2.0,GROWING,25.2295765,55.2859169,ChIJ8fJbT-9CXz4RtmnvwC6kqH8
TEN 11 (The Dubai Mall),Level 2 Fashion Avenue The Dubai Mall - برج خليفة - وسط مدينة دبي - دبي - United Arab Emirates,Dubai Mall,4.8,1209,3.0,cafe,dessert,YES,42,40.0,100.0,3354.63671875,300.0,1788.0,High,1.0,0,1.0,1.0,0.31658129073988306,28.785714285714285,0.9999999999825,0.9999999999956523,1,0,0.7795178571428572,0.30511897823652673,1.0,0.0,1.5,GROWING,25.197344599999997,55.2763129,ChIJMxUJ5EBDXz4RwAbv2CTGlDk
Kulture House Dubai,106 Jumeira St - Jumeirah - Jumeirah 1 - Dubai - United Arab Emirates,Jumeirah,4.5,1048,2.0,cafe,,NO,2,40.0,100.0,3222.3671875,160.0,1788.0,High,4.0,1,1.0101204819277108,0.972972972972973,-0.6075142245760097,524.0,0.9999999999825,0.39130434782438567,0,0,0.6900000000000001,0.4801041553663121,0.8,0.0,2.0,GROWING,25.225616799999997,55.2582269,ChIJe0BIiPpDXz4RMRwBkfQBJkU
Blue Box Café Dubai,Dubai Mall - 2 Financial Ctr St - Burj Khalifa - Downtown Dubai - Dubai - United Arab Emirates,Downtown Dubai,4.6,368,2.0,Unknown,,NO,41,40.0,100.0,3354.63671875,250.0,1788.0,High,1.0,0,0.44987775061124696,0.9622641509433961,-0.3192822040689315,8.975609756097562,0.9999999999825,0.7826086956487713,0,0,0.876,0.17213366899011942,1.0,0.0,2.0,GROWING,25.1984423,55.2802564,ChIJDWOca3VDXz4R-3omHX7IYBs
Saya Café City Walk,City Walk - Al Wasl - Dubai - United Arab Emirates,City Walk,4.4,2088,2.0,cafe,dessert,YES,9,40.0,100.0,3310.637451171875,240.0,1788.0,High,3.0,0,1.0,0.8,-1.231438591973921,232.0,0.9999999999825,0.7391304347793951,0,0,1.0,0.0,1.0,0.0,2.0,GROWING,25.2075563,55.262915899999996,ChIJQz5YLhJDXz4RCXn3JYxeb6I
Brunch & Cake Wasl 51,"Ground Floor, Wasl 51 - شارع الوصل - جميرا - جميرا ١ - دبي - United Arab Emirates",Other,4.7,6729,2.0,cafe,,NO,5,40.0,100.0,3214.366943359375,,1788.0,High,2.0,0,20.962616822429908,0.994535519125683,0.330233175670436,1345.8,0.9999999999825,0.478260869563138,0,0,0.9737500000000001,0.05869678440936948,1.0,0.0,2.0,GROWING,25.217725599999998,55.2606894,ChIJy68zikpDXz4RYwtgnn6jYNE
LULU AND THE BEANSTALK (21+ ONLY),Icd Brookfield Place - Al Mustaqbal St - Zaa'beel Second - DIFC - Dubai - United Arab Emirates,DIFC,4.4,202,3.0,cafe,,NO,13,40.0,100.0,3315.0224609375,220.0,1788.0,High,1.0,0,0.517948717948718,1.0,-0.4973827080155998,15.538461538461538,0.9999999999825,0.6521739130406428,1,0,0.9400000000000001,0.1341640786499874,1.0,0.0,0.0,DECLINING,25.2116315,55.2803871,ChIJz2N9p4pDXz4RLBLOoPuhjDo
Hoof Dubai Mall,Dubai Mall service road - Burj Khalifa - Downtown Dubai - Dubai - United Arab Emirates,Downtown Dubai,4.7,1180,2.0,cafe,,NO,42,40.0,100.0,3354.63671875,250.0,1788.0,High,1.0,0,1.4425427872860637,0.9622641509433961,0.12080948262067528,28.095238095238095,0.9999999999825,0.7826086956487713,0,0,0.70125,0.28043771590141003,1.0,0.0,4.0,GROWING,25.198024800000002,55.2755333,ChIJxfBPn91pXz4RzO3v93ad5bk
"Arabian Tea House Restaurant & Cafe - Al Fahidi, Dubai",Bastakiya Opposite Musalla Post Office - Al Fahidi St - Bur Dubai - Al Fahidi - Dubai - United Arab Emirates,Bur Dubai,4.8,18784,2.0,arabic,cafe,YES,1,40.0,100.0,3353.56689453125,85.0,1788.0,High,1.0,0,1.0,1.0,0.0,18784.0,0.9999999999825,0.06521739130406427,0,0,0.9302857142857143,0.10078467651586803,1.0,0.0,2.0,GROWING,25.263314200000003,55.299735299999995,ChIJsSfTxjlDXz4RDIGbnFqsAlo
Lazy Cat,Al QuozAl - Ghadeer Al Tair - Dubai - United Arab Emirates,Al Quoz,4.5,3231,2.0,Unknown,,NO,0,19.43,48.57,3297.219482421875,110.0,868.49,Medium,3.0,0,13.518828451882845,1.0,-0.20334751282094532,3231.0,0.48572499999149965,0.17391304347750475,0,0,0.9327272727272728,0.09482476225749302,1.0,0.0,2.0,GROWING,25.1610485,55.267799499999995,ChIJFViBXrNpXz4RfzrDERHbrKQ
The Jungle Courtyard,12b 73A St - Jumeirah - Jumeirah 1 - Dubai - United Arab Emirates,Jumeirah,4.7,2119,2.0,cafe,,NO,3,40.0,100.0,3307.873046875,160.0,1788.0,High,4.0,1,2.0424096385542168,0.972972972972973,0.32314586413617635,706.3333333333334,0.9999999999825,0.39130434782438567,0,0,0.9935384615384615,0.014448439239229418,1.0,0.0,2.0,GROWING,25.215429,55.252697299999994,ChIJQwfmt0ZDXz4RVdkSOrjv9NM
Nargileci Eleven Cafe,Building Al Emreef St - Marsa Dubai - Dubai Marina - Dubai - United Arab Emirates,Dubai Marina,4.8,789,2.0,cafe,,NO,2,40.0,100.0,2784.210205078125,200.0,1788.0,High,3.0,0,0.9404052443384983,1.0,0.8211733521770351,394.5,0.9999999999825,0.5652173913018904,0,0,1.0,0.0,1.0,0.0,2.0,GROWING,25.082962,55.144334799999996,ChIJuwWnpZFrXz4RDPsIOciAmeA
Orijins,Al Mustaqbal St - Zaa'beel Second - DIFC - Dubai - United Arab Emirates,DIFC,4.3,1036,3.0,cafe,,NO,7,40.0,100.0,3348.3896484375,220.0,1788.0,High,1.0,0,2.6564102564102563,1.0,-0.8365072816626019,148.0,0.9999999999825,0.6521739130406428,1,0,0.764,0.4248293775152561,0.8,0.0,4.0,GROWING,25.213060799999997,55.2829434,ChIJddeXXQJDXz4RZ5arWL-5NbY
SEVA TABLE,67J7+783 - 31A St - Jumeirah - Jumeirah 1 - Dubai - United Arab Emirates,Jumeirah,4.3,39,2.0,cafe,,NO,1,40.0,100.0,3222.3671875,160.0,1788.0,High,1.0,0,0.037590361445783135,0.972972972972973,-1.5381743132881958,39.0,0.9999999999825,0.39130434782438567,0,0,0.0,0.0,0.5,0.1,1.0,STABLE,25.2306442,55.2633112,ChIJ46uYUABDXz4Rj77hZEXekIc
Tom&Serg.,15A Street - شارع الشيخ زايد - near ACE Hardware and Burjeel Hospital - القوز الصناعية الأولى - القوز - دبي - United Arab Emirates,Other,4.6,4036,2.0,cafe,,NO,3,35.43,88.57,2914.820068359375,,1583.69,High,3.0,0,12.573208722741432,0.994535519125683,-0.03624510464675482,1345.3333333333333,0.8857249999844996,0.478260869563138,0,0,1.0,0.0,1.0,0.0,2.0,GROWING,25.1459924,55.223148099999996,ChIJj3fdMipqXz4RFMG6snLxSaY
The Big Chill Cafe,Al Khail Rd - Hadaeq Sheikh Mohammed Bin Rashid - Dubai - United Arab Emirates,Other,4.6,758,2.0,cafe,,NO,5,25.71,64.29,2817.204833984375,,1149.34,Medium,2.0,0,2.3613707165109035,0.994535519125683,-0.03624510464675482,151.6,0.6428249999887512,0.478260869563138,0,0,0.884,0.25938388538997564,1.0,0.0,2.0,GROWING,25.1034442,55.2392979,ChIJ0S-N27JuXz4RCt5roVItRKo
One Life Kitchen and Café (d3),Building 5 - Zaa'beel Second - Dubai Design District - Dubai - United Arab Emirates,D3 Design District,4.5,1327,2.0,cafe,,NO,5,30.86,77.14,3297.1923828125,180.0,1379.37,Medium,3.0,0,1.3048180924287118,1.0,0.32519680361730074,265.4,0.7714499999864992,0.478260869563138,0,0,0.71,0.4364630568559039,0.8,0.0,2.0,GROWING,25.188278999999998,55.298004,ChIJ627xThFoXz4R49vvxoMOw8s
THE SIX Board Game Cafe - DOWNTOWN,Burj Vista - Sheikh Mohammed bin Rashid Blvd - Burj Khalifa - Downtown Dubai - Dubai - United Arab Emirates,Downtown Dubai,4.7,1953,2.0,cafe,,NO,10,40.0,100.0,3327.620361328125,250.0,1788.0,High,2.0,0,2.3875305623471883,0.9622641509433961,0.12080948262067528,195.3,0.9999999999825,0.7826086956487713,0,0,0.52,0.6723094525588644,0.6,0.2,2.0,GROWING,25.1981777,55.271136899999995,ChIJ90KumE9DXz4RLwxgUp85tkA
"Angelina Paris UAE - Dubai Mall, Tearoom","Unit GF - 016 , The Dubai Mall, Fashion Avenue - شارع المركز المالي - برج خليفة - وسط مدينة دبي - دبي - United Arab Emirates",Dubai Mall,4.8,11391,3.0,french,cafe,YES,42,40.0,100.0,3354.63671875,300.0,1788.0,High,3.0,1,9.421836228287841,1.0,0.31658129073988306,271.2142857142857,0.9999999999825,0.9999999999956523,1,0,0.0,0.0,0.5,0.1,1.0,STABLE,25.1978284,55.2774857,ChIJcXGaZYJCXz4R94EQcPOGTAM
Love Vibe Café DIFC,Gate Avenue - Ex 153 - Level POD - زعبيل الثانية - DIFC - دبي - United Arab Emirates,DIFC,4.8,2517,3.0,Unknown,,NO,14,40.0,100.0,3315.0224609375,220.0,1788.0,High,4.0,0,6.453846153846154,1.0,0.8591155865723994,179.78571428571428,0.9999999999825,0.6521739130406428,1,0,0.7824,0.3846411314459232,0.8,0.0,2.0,GROWING,25.2121635,55.279662300000005,ChIJ478A2XBDXz4Rw5S7guhMm4o
MINT - Dubai Mall,Unit SF053 - Dubai Mall - Second floor - opposite to Dior Kids - برج خليفة - وسط مدينة دبي - دبي - United Arab Emirates,Dubai Mall,4.8,3961,3.0,cafe,,NO,46,40.0,100.0,3354.63671875,300.0,1788.0,High,3.0,1,3.2762613730355667,1.0,0.31658129073988306,86.1086956521739,0.9999999999825,0.9999999999956523,1,0,0.96,0.08944271909999156,1.0,0.0,2.0,GROWING,25.1958636,55.2780193,ChIJ_0D0AwlDXz4RNyFLc-fhRkM
NETTE,20 8 St - Al Qouz Ind.first - Al Quoz - Dubai - United Arab Emirates,Al Quoz,4.4,500,2.0,Unknown,,NO,1,39.43,98.57,3052.322998046875,110.0,1762.49,High,1.0,0,2.092050209205021,1.0,-0.639092183151539,500.0,0.9857249999827495,0.17391304347750475,0,0,0.8966666666666667,0.14738460646289428,1.0,0.0,2.0,GROWING,25.151160899999997,55.234076699999996,ChIJhYSZq4NpXz4Rwh4RHFwcZAk
Black Sheep Coffee,Black Sheep Coffee - Dubai Mall - Cinema Parking - Second Floor - برج خليفة - وسط مدينة دبي - دبي - United Arab Emirates,Dubai Mall,4.8,624,3.0,cafe,,NO,45,40.0,100.0,3354.63671875,300.0,1788.0,High,2.0,0,0.5161290322580645,1.0,0.31658129073988306,13.866666666666667,0.9999999999825,0.9999999999956523,1,0,0.82,0.303315017762062,1.0,0.0,2.0,GROWING,25.196191799999998,55.2800491,ChIJZWIqXbppXz4RlRKorF5WU5M
Friends Avenue Cafe JLT,Ground Floor - Fortune Executive - Cluster T - الثنيه الخامسة - أبراج بحيرات الجميرا - دبي - United Arab Emirates,Other,4.5,1724,2.0,cafe,dessert,YES,1,40.0,100.0,2898.724609375,,1788.0,High,2.0,0,5.370716510903427,0.994535519125683,-0.4027233849639424,1724.0,0.9999999999825,0.478260869563138,0,0,1.0,0.0,1.0,0.0,2.0,GROWING,25.0788115,55.1493414,ChIJ0TnlwqdsXz4RyynhUfpcOw8
Hidden cafe,Dubai - Al Lesaily - Dubai - United Arab Emirates,Other,4.2,1310,2.0,cafe,,NO,0,2.0,5.0,130.5388488769531,,89.4,Low,2.0,0,4.080996884735202,0.994535519125683,-1.5021582259155084,1310.0,0.049999999999125,0.478260869563138,0,0,0.9120000000000001,0.1213260071048248,1.0,0.0,2.0,GROWING,24.890812500000003,55.432937499999994,ChIJT9Rbs4aBXz4REeRFuxHkQ14
Splendour Fields - The Park JLT,The Park - Al Thanyah Fifth - Jumeirah Lakes Towers - Dubai - United Arab Emirates,Jumeirah,4.6,941,2.0,Unknown,,NO,1,40.0,100.0,2914.711181640625,160.0,1788.0,High,2.0,0,0.9069879518072289,0.972972972972973,-0.14218418021991874,941.0,0.9999999999825,0.39130434782438567,0,0,0.96,0.08944271909999157,1.0,0.0,2.0,GROWING,25.075046099999998,55.146753999999994,ChIJGYJbKpptXz4RaXq6iPTVGL0
Cafe Society Dubai,Tamani Hotel Marina - King Salman Bin Abdulaziz Al Saud St - Marsa Dubai - Dubai Marina - Dubai - United Arab Emirates,Dubai Marina,4.6,579,2.0,cafe,,NO,2,36.0,90.0,2846.9482421875,200.0,1609.2,High,2.0,0,0.6901072705601907,1.0,-0.6021937915964988,289.5,0.8999999999842501,0.5652173913018904,0,0,1.0,0.0,1.0,0.0,2.0,GROWING,25.091104599999998,55.1489616,ChIJieVaUkVrXz4R6QJvXIpyCes
The Delisserie | FIVE Palm Jumeirah,No 1 Palm - نخلة جميرا - Jumeirah - دبي - United Arab Emirates,Jumeirah,4.7,265,2.0,cafe,,NO,1,33.71,84.29,2778.476806640625,160.0,1506.94,High,0.0,0,0.25542168674698795,0.972972972972973,0.32314586413617635,265.0,0.8428249999852512,0.39130434782438567,0,0,0.0,0.0,0.5,0.1,1.0,STABLE,25.1038828,55.1491233,ChIJB7B030RrXz4RraCChycQPSk
Flat12 Cafe,Rashid - Dubai - Shed 3 Marina Cubes Street - مدينة دبي الملاحية - ميناء راشد - دبي - United Arab Emirates,Dubai Marina,4.6,1369,2.0,cafe,,NO,2,24.0,60.0,3150.76904296875,200.0,1072.8,Medium,4.0,0,1.631704410011919,1.0,-0.6021937915964988,684.5,0.5999999999895,0.5652173913018904,0,0,0.96,0.08944271909999156,1.0,0.0,2.0,GROWING,25.258145799999998,55.27311770000001,ChIJjVecYSxDXz4RmYDjTMaYdHY
Nomad Day Bar,25hours Hotel Dubai One Central - شارع المستقبل - off شارع الشيخ زايد - المركز التجاري الثانية - دبي - United Arab Emirates,Other,4.4,263,2.0,cafe,,NO,5,40.0,100.0,3312.6767578125,,1788.0,High,2.0,1,0.8193146417445483,0.994535519125683,-0.7692016652811299,52.6,0.9999999999825,0.478260869563138,0,0,0.7394761904761905,0.3318152677049177,0.8,0.0,2.0,GROWING,25.219448500000002,55.2841592,ChIJc64QQrRDXz4R3kgys9uUNuo
Stay Bakery & Cafe,"Stay Cafe, Dar Al Wasl Mall - Al Wasl Rd - Al Wasl - Dubai - United Arab Emirates",Al Wasl,4.8,513,2.0,cafe,dessert,YES,4,33.14,82.86,3299.60888671875,140.0,1481.43,Medium,1.0,0,0.6946513202437373,0.9523809523809523,0.5329820781841085,128.25,0.8285499999855008,0.30434782608563327,0,0,0.329,0.9213875406146971,0.6,0.4,2.0,GROWING,25.1954446,55.2461765,ChIJI_tpxpxDXz4RKyfx5_L29sU
New Earth Cafe,Wadi Al Safa 3 - Al Barari - Dubai - United Arab Emirates,Other,4.6,240,2.0,cafe,,NO,1,16.57,41.43,3161.185791015625,,740.71,Low,1.0,0,0.7476635514018691,0.994535519125683,-0.03624510464675482,240.0,0.4142749999927504,0.478260869563138,0,0,1.0,0.0,1.0,0.0,2.0,GROWING,25.0991507,55.3154008,ChIJXzBhucplXz4RxzQ-KfL8szg
"Risen Café and Artisanal Bakery, Business Bay",The First Collection - Ground Floor - Business Bay - Dubai - United Arab Emirates,Business Bay,4.9,448,2.0,cafe,dessert,YES,3,36.0,90.0,3361.7880859375,180.0,1609.2,High,2.0,0,1.1144278606965174,1.0,1.04459133669534,149.33333333333334,0.8999999999842501,0.478260869563138,0,0,0.99925,0.00167705098312485,1.0,0.0,1.5,GROWING,25.1780707,55.267896099999994,ChIJzyz4ZHhpXz4RG2CLve4U-rU
Luna Coffee,"Dubai mall, Zabeel Walk P6 - Burj Khalifa - Downtown Dubai - Dubai - United Arab Emirates",Downtown Dubai,4.6,219,2.0,cafe,,NO,43,40.0,100.0,3354.63671875,250.0,1788.0,High,1.0,0,0.26772616136919314,0.9622641509433961,-0.3192822040689315,5.093023255813954,0.9999999999825,0.7826086956487713,0,0,0.85,0.14999999999999997,1.0,0.0,4.0,GROWING,25.1980345,55.2794302,ChIJuYX9EQJDXz4RAveOyCh5-JY
Secret Garden by L'ETO,Marsa Dubai - Bluewaters Island - Dubai - United Arab Emirates,Other,4.8,425,2.0,Unknown,,NO,0,35.43,88.57,,,1583.69,High,2.0,1,1.32398753894081,0.994535519125683,0.6967114559876235,425.0,0.8857249999844996,0.478260869563138,0,0,0.9039999999999999,0.1344618905117729,1.0,0.0,2.0,GROWING,25.079095799999997,55.123666699999994,ChIJMcTOEMAVXz4Rh2YlAvT5-m4
Trove Best Shisha Lounge In Dubai,"Ground floor,Fashion avenue, The Dubai Mall - Burj Khalifa - Downtown Dubai - Dubai - United Arab Emirates",Downtown Dubai,4.9,8928,2.0,turkish,,NO,42,40.0,100.0,3354.63671875,250.0,1788.0,High,2.0,0,10.91442542787286,0.9622641509433961,1.0009928559998849,212.57142857142858,0.9999999999825,0.7826086956487713,0,0,1.0,0.0,1.0,0.0,2.0,GROWING,25.1974375,55.276394,ChIJS3XZ-yFDXz4Rx6OKXUedm2Q
Askim Restaurant and Cafe (مطعم ومقهى أشكم),"Ground floor, Boulevard Heights - Al Tahani St - Burj Khalifa - Downtown Dubai - Dubai - United Arab Emirates",Downtown Dubai,4.8,2069,2.0,cafe,,NO,7,40.0,100.0,3327.620361328125,250.0,1788.0,High,4.0,1,2.5293398533007334,0.9622641509433961,0.5609011693102781,295.57142857142856,0.9999999999825,0.7826086956487713,0,0,1.0,0.0,1.0,0.0,2.0,GROWING,25.1932822,55.269234999999995,ChIJG0jtnQZpXz4RwjycJP7INFM
"Apricot Dubai, Downtown Dubai","Al Manzil, Old Town - برج خليفة - وسط مدينة دبي - دبي - United Arab Emirates",Other,4.4,679,2.0,cafe,,NO,16,40.0,100.0,3322.256591796875,,1788.0,High,4.0,0,2.115264797507788,0.994535519125683,-0.7692016652811299,42.4375,0.9999999999825,0.478260869563138,0,0,0.8400000000000001,0.2607680962081059,1.0,0.0,2.0,GROWING,25.1912059,55.2783819,ChIJgR5Dmw5pXz4RtC16DhAPkHk
Baku Cafe,City Walk 2 - الوصل - دبي - United Arab Emirates,City Walk,4.4,1503,3.0,arabic,cafe,YES,8,40.0,100.0,3310.637451171875,240.0,1788.0,High,1.0,0,0.7198275862068966,1.2,-1.231438591973921,187.875,0.9999999999825,0.7391304347793951,1,0,1.0,0.0,1.0,0.0,1.5,GROWING,25.2070616,55.261346499999995,ChIJa5mguWVCXz4RNbL0TgNbysU
Chaplin restaurant & cafe,Sheikh Mohammed bin Rashid Blvd - Burj Khalifa - Downtown Dubai - Dubai - United Arab Emirates,Downtown Dubai,4.4,1396,3.0,cafe,,NO,8,40.0,100.0,3345.652099609375,250.0,1788.0,High,2.0,1,1.706601466992665,1.4433962264150941,-1.199465577448137,174.5,0.9999999999825,0.7826086956487713,1,0,0.0,0.0,0.5,0.1,1.0,STABLE,25.1907388,55.2725455,ChIJE_b3CKRpXz4R1_k1W4Mue8E
The Barnyard,Hadaeq Sheikh Mohammed Bin Rashid - Dubai Hills - Dubai - United Arab Emirates,Other,4.8,680,2.0,Unknown,,NO,3,26.57,66.43,2817.204833984375,,1187.71,Medium,2.0,1,2.1183800623052957,0.994535519125683,0.6967114559876235,226.66666666666666,0.6642749999883755,0.478260869563138,0,0,0.96,0.08944271909999157,1.0,0.0,2.0,GROWING,25.1056125,55.2397765,ChIJZ4t360tpXz4RQ7dzLEWNqNc
Piccolo Mondo View بيكولو موندو فيو,8 19th Street Sheikh Zayed Rd - Trade Center First - Dubai - United Arab Emirates,Sheikh Zayed Road,4.5,2092,2.0,Unknown,,NO,13,40.0,100.0,3315.0224609375,190.0,1788.0,High,3.0,0,2.3090507726269314,1.0,-0.07117482792171599,160.92307692307693,0.9999999999825,0.5217391304325142,0,0,0.0,0.0,0.5,0.1,1.0,STABLE,25.211100899999998,55.273901599999995,ChIJ58yIb4lCXz4RKGo03PGZjTk
Arto Coffee,Coffee Shop N: 010 - Dubai Mall - 2nd Floor شارع المركز المالي - برج خليفة - وسط مدينة دبي - دبي - United Arab Emirates,Dubai Mall,4.8,2031,3.0,cafe,,NO,43,40.0,100.0,3354.63671875,300.0,1788.0,High,3.0,0,1.6799007444168734,1.0,0.31658129073988306,47.23255813953488,0.9999999999825,0.9999999999956523,1,0,0.8800000000000001,0.17888543819998318,1.0,0.0,1.5,GROWING,25.197275299999998,55.277895199999996,ChIJ3_edgoJCXz4Rbx3ewEyf4Fc
Obeli,City Walk Building 21A - الوصل - دبي - United Arab Emirates,City Walk,4.5,492,2.0,Unknown,,NO,5,40.0,100.0,3310.637451171875,240.0,1788.0,High,3.0,0,0.23563218390804597,0.8,-0.7476591451270258,98.4,0.9999999999825,0.7391304347793951,0,0,0.915,0.08944271909999156,1.0,0.0,0.6666666666666666,STABLE,25.2004098,55.264923499999995,ChIJXxPdzHhDXz4RIiPuDZh1SS4
Cello Restaurant & Cafe,"برج سما, 14 - Sheikh Zayed Rd - Trade Center First - Dubai - United Arab Emirates",Sheikh Zayed Road,4.3,3150,2.0,arabic,cafe,YES,3,40.0,100.0,3249.76318359375,190.0,1788.0,High,5.0,1,3.4768211920529803,1.0,-0.669043382464133,1050.0,0.9999999999825,0.5217391304325142,0,0,0.0,0.0,0.5,0.1,1.0,STABLE,25.2281861,55.285755599999995,ChIJWSGPJe9CXz4RTW8TVHpqlfo
The Espresso Lab - D3,Unit 8، Building 7 - Ground Floor - Zaa'beel Second - Dubai Design District - Dubai - United Arab Emirates,D3 Design District,4.4,1760,2.0,cafe,,NO,5,32.0,80.0,3297.1923828125,180.0,1430.4,Medium,2.0,0,1.7305801376597836,1.0,-0.06503936072346016,352.0,0.799999999986,0.478260869563138,0,0,0.5579,0.8538805829857007,0.8,0.2,4.0,GROWING,25.1886676,55.2977011,ChIJJxIMW49CXz4ROudpA1sa45o
The Coffee,"BD-OTCI-L3-008 Level 3, Souk Al Bahar - Burj Khalifa - Dubai Mall - Dubai - United Arab Emirates",Downtown Dubai,4.8,110,2.0,cafe,,NO,42,40.0,100.0,3354.63671875,250.0,1788.0,High,1.0,0,0.13447432762836187,0.9622641509433961,0.5609011693102781,2.619047619047619,0.9999999999825,0.7826086956487713,0,0,0.976,0.05366563145999494,1.0,0.0,4.0,GROWING,25.1941958,55.2770788,ChIJa2jyQXBpXz4R2GZPS8u5OvM
Dr. Sheesha Cafe,"Dr. Sheesha Cafe - Opp Dubai Mall Metro Station, Sheikh Zayed Road - إ11 - الوصل - دبي - United Arab Emirates",Sheikh Zayed Road,4.7,81,2.0,cafe,,NO,7,40.0,100.0,3330.054443359375,190.0,1788.0,High,0.0,0,0.08940397350993377,1.0,0.526693726620701,11.571428571428571,0.9999999999825,0.5217391304325142,0,0,0.9650000000000001,0.07826237921249267,1.0,0.0,2.0,GROWING,25.202790800000002,55.268289599999996,ChIJAVRezf9pXz4RZAfLsEATPMM
Roasters Specialty Coffee House Boulevard Downtown,Yansoon 1 - Sheikh Mohammed bin Rashid Blvd - Burj Khalifa - Yansoon - Dubai - United Arab Emirates,Downtown Dubai,4.8,2167,2.0,cafe,dessert,YES,25,40.0,100.0,3354.63671875,250.0,1788.0,High,2.0,1,2.6491442542787285,0.9622641509433961,0.5609011693102781,86.68,0.9999999999825,0.7826086956487713,0,0,1.0,0.0,1.0,0.0,2.0,GROWING,25.192192,55.2783261,ChIJz7f7eHppXz4RRUjdskgbeCg
Roasters Specialty Coffee House Creek Harbour,Al Kheeran First - Dubai Creek Harbour - Dubai - United Arab Emirates,Other,4.9,2732,2.0,cafe,,NO,2,27.14,67.86,2936.587158203125,,1213.23,Medium,1.0,0,8.510903426791277,0.994535519125683,1.0631897363048144,1366.0,0.6785499999881257,0.478260869563138,0,0,0.37581818181818183,0.6853241978788923,0.6,0.2,2.0,GROWING,25.2067364,55.3422104,ChIJ_zZpA0ZnXz4RtFL7g-M7idM
Orto cafe,395 Al Athar Street - Jumeirah - Jumeira Second - Dubai - United Arab Emirates,Jumeirah,4.7,5665,2.0,cafe,,NO,2,33.71,84.29,3285.64599609375,160.0,1506.94,High,4.0,0,5.460240963855422,0.972972972972973,0.32314586413617635,2832.5,0.8428249999852512,0.39130434782438567,0,0,0.9333333333333333,0.0942809041582063,1.0,0.0,2.0,GROWING,25.195009499999998,55.2357981,ChIJzSFuwRJDXz4RKSummBCpqBk
Roasters Specialty Coffee House Dubai Mall,Financial Ctr St - Burj Khalifa - Downtown Dubai - Dubai - United Arab Emirates,Downtown Dubai,4.9,6390,2.0,cafe,,NO,45,40.0,100.0,3354.63671875,250.0,1788.0,High,2.0,0,7.811735941320293,0.9622641509433961,1.0009928559998849,142.0,0.9999999999825,0.7826086956487713,0,0,0.9199999999999999,0.1095445115010332,1.0,0.0,2.0,GROWING,25.1972455,55.27855640000001,ChIJ2zIh5ZNpXz4RGyvTqIqnjmY
Roasters Specialty Coffee House JBR & NFT Gallery,Amwaj - Marsa Dubai - Jumeirah Beach Residence - Dubai - United Arab Emirates,Jumeirah,4.9,4534,2.0,cafe,,NO,7,40.0,100.0,2994.468994140625,160.0,1788.0,High,3.0,0,4.370120481927711,0.972972972972973,1.2538059528483623,647.7142857142857,0.9999999999825,0.39130434782438567,0,0,0.6756,0.4132514972749646,0.8,0.0,2.0,GROWING,25.0742649,55.130948499999995,ChIJ4fPSJ3wTXz4RdsdOVXsUriI
THE KANA CAFE BUSINESS BAY,Empire Heights Tower B - Marasi Dr - Business Bay - Dubai - United Arab Emirates,Business Bay,4.2,3461,2.0,cafe,,NO,4,40.0,100.0,3305.975830078125,180.0,1788.0,High,3.0,0,8.609452736318408,1.0,-1.7221640956328594,865.25,0.9999999999825,0.478260869563138,0,0,0.441,0.8413709051304307,0.8,0.2,2.0,GROWING,25.189996999999998,55.2841765,ChIJST1J3RVpXz4RmKnpOsYCoa0
The Lazy Guy,Al Fattan Downtown Towers - Al Satwa - Downtown Dubai - Dubai - United Arab Emirates,Downtown Dubai,4.7,642,2.0,cafe,,NO,7,40.0,100.0,3330.054443359375,250.0,1788.0,High,2.0,0,0.784841075794621,0.9622641509433961,0.12080948262067528,91.71428571428571,0.9999999999825,0.7826086956487713,0,0,0.9199999999999999,0.1095445115010332,1.0,0.0,2.0,GROWING,25.2075142,55.267711399999996,ChIJu-NbBslDXz4Rvm8JTeRK_60
The Patisserie at Address Sky View,sk - Burj Khalifa - Dubai - United Arab Emirates,Downtown Dubai,4.9,259,2.0,cafe,french,YES,9,40.0,100.0,3330.054443359375,250.0,1788.0,High,2.0,1,0.31662591687041564,0.9622641509433961,1.0009928559998849,28.77777777777778,0.9999999999825,0.7826086956487713,0,0,0.97,0.0670820393249937,1.0,0.0,4.0,GROWING,25.2015656,55.270538699999996,ChIJG9FBhA5pXz4RIvRL52vrlzk
Roasters Specialty Coffee House Al Wasl,Villa 11 - 484a Al Wasl Rd - Jumeirah - Jumeira Second - Dubai - United Arab Emirates,Jumeirah,4.8,2935,2.0,cafe,,NO,4,33.71,84.29,3299.60888671875,160.0,1506.94,High,3.0,1,2.8289156626506022,0.972972972972973,0.7884759084922672,733.75,0.8428249999852512,0.39130434782438567,0,0,0.884,0.25938388538997564,1.0,0.0,2.0,GROWING,25.196437,55.2460455,ChIJQboZtNhfXz4RFvKQyydmFDg
Alchemy Coffee,Al Wasl Rd - Jumeirah - Jumeirah 2 - Dubai - United Arab Emirates,Jumeirah,4.3,1021,2.0,cafe,,NO,4,33.71,84.29,3299.60888671875,160.0,1506.94,High,4.0,0,0.9840963855421687,0.972972972972973,-1.5381743132881958,255.25,0.8428249999852512,0.39130434782438567,0,0,0.6,0.42332020977033447,0.8,0.0,2.0,GROWING,25.195043,55.2449607,ChIJpSdHZwxCXz4R_AbU5WGdufU
Rx Coffee Apothecary - Dubai Mall,Dubai Mall - Burj Khalifa - Downtown Dubai - Dubai - United Arab Emirates,Downtown Dubai,4.8,358,2.0,cafe,,NO,45,40.0,100.0,3354.63671875,250.0,1788.0,High,1.0,0,0.43765281173594134,0.9622641509433961,0.5609011693102781,7.955555555555556,0.9999999999825,0.7826086956487713,0,0,0.994,0.013416407864998758,1.0,0.0,2.0,GROWING,25.1968778,55.2796731,ChIJnXzr0YhpXz4R0Insyng3PVE
EARTH ROASTERY,6th St - Al Qouz Third - Al Quoz - Dubai - United Arab Emirates,Al Quoz,4.3,431,2.0,cafe,,NO,0,36.57,91.43,3135.519287109375,110.0,1634.71,High,2.0,0,1.8033472803347281,1.0,-1.0748368534821366,431.0,0.9142749999840004,0.17391304347750475,0,0,1.0,0.0,1.0,0.0,2.0,GROWING,25.161847800000004,55.2403094,ChIJlzR0Np9pXz4R01tmn763c8g
Caju Coffee House,"Caju Cafe, Al Manzil - GF-801 - Burj Khalifa - Yansoon - Dubai - United Arab Emirates",Downtown Dubai,4.9,253,2.0,cafe,,NO,17,40.0,100.0,3354.63671875,250.0,1788.0,High,1.0,0,0.3092909535452323,0.9622641509433961,1.0009928559998849,14.882352941176471,0.9999999999825,0.7826086956487713,0,0,0.968,0.07155417527999322,1.0,0.0,2.0,GROWING,25.1912935,55.278330499999996,ChIJAd4hBttpXz4RgU0Osdvtd4Y
Caribou Coffee - Sheik Zayed Road,"Ground Floor, Pink Building - Sheikh Zayed Rd - Trade Center First - Dubai - United Arab Emirates",Sheikh Zayed Road,4.3,1849,2.0,cafe,dessert,YES,14,40.0,100.0,3279.29638671875,190.0,1788.0,High,0.0,0,2.04083885209713,1.0,-0.669043382464133,132.07142857142858,0.9999999999825,0.5217391304325142,0,0,0.0,0.0,0.5,0.1,1.0,STABLE,25.2098004,55.2732854,ChIJ960CBolCXz4RvRQx5JnniB4
Peet’s Coffee,Dubai Mall - Fashion Avenue - Fashion Avenue - First Floor - Burj Khalifa - Downtown Dubai - Dubai - United Arab Emirates,Downtown Dubai,4.8,3410,2.0,cafe,,NO,42,40.0,100.0,3354.63671875,250.0,1788.0,High,2.0,0,4.168704156479218,0.9622641509433961,0.5609011693102781,81.19047619047619,0.9999999999825,0.7826086956487713,0,0,0.9602857142857143,0.054383370807703384,1.0,0.0,2.0,GROWING,25.1970873,55.2771792,ChIJsdi1v0tDXz4RcmE1bQDNeGg
Caffee Trucillo SZR كافيه تروتشيلو,Sheikh Zayed Rd - Trade Center First - Dubai - United Arab Emirates,Sheikh Zayed Road,4.6,202,2.0,cafe,,NO,14,40.0,100.0,3315.0224609375,190.0,1788.0,High,3.0,0,0.2229580573951435,1.0,0.22775944934949116,14.428571428571429,0.9999999999825,0.5217391304325142,0,0,0.44000000000000006,0.8763560920082658,0.6,0.2,1.5,GROWING,25.212404499999998,55.2749307,ChIJcR04zZxDXz4RuEvG6JPI_Qc
THE BARN Coffee Roasters Dubai,Al Khazan Park - 89th St - Al Satwa - Dubai - United Arab Emirates,Satwa,4.5,443,2.0,cafe,,NO,9,40.0,100.0,3321.885986328125,85.0,1788.0,High,3.0,0,1.0,1.0,-1.0550087574332592,49.22222222222222,0.9999999999825,0.06521739130406427,0,0,0.96,0.08944271909999157,1.0,0.0,1.5,GROWING,25.209067899999997,55.2647334,ChIJ12D64s9DXz4RSVJd_4qB1X4
Black Sheep Coffee,Emaar - Act Two - Retail 04 Sheikh Mohammed bin Rashid Blvd - Burj Khalifa - Downtown Dubai - Dubai - United Arab Emirates,Dubai Mall,4.8,321,3.0,cafe,,NO,45,40.0,100.0,3354.63671875,300.0,1788.0,High,2.0,0,0.2655086848635236,1.0,0.31658129073988306,7.133333333333334,0.9999999999825,0.9999999999956523,1,0,0.9741428571428571,0.04114558522701396,1.0,0.0,2.0,GROWING,25.1925092,55.2720535,ChIJr4TSkx9DXz4RAOhdItcLg74
Black Sheep Coffee,"Ground Floor, Boulevard Plaza BPL 12 - برج خليفة - 13GF-06 - دبي - United Arab Emirates",Dubai Mall,4.8,289,3.0,cafe,,NO,45,40.0,100.0,3354.63671875,300.0,1788.0,High,2.0,0,0.23904052936311002,1.0,0.31658129073988306,6.4222222222222225,0.9999999999825,0.9999999999956523,1,0,0.9872500000000001,0.028509866713122313,1.0,0.0,2.0,GROWING,25.2000776,55.2742661,ChIJT61GkKVDXz4RsRbVKYVxBwY
Peet’s Coffee,Dubai Mall - Ground Floor - Financial Ctr St - The District - Downtown Dubai - Dubai - United Arab Emirates,Downtown Dubai,4.9,446,2.0,cafe,,NO,42,40.0,100.0,3354.63671875,250.0,1788.0,High,2.0,0,0.5452322738386308,0.9622641509433961,1.0009928559998849,10.619047619047619,0.9999999999825,0.7826086956487713,0,0,0.0,0.0,0.5,0.1,1.0,STABLE,25.194986,55.278413799999996,ChIJRxE7xs9pXz4RzGab3ypiYUI
Dark Door - Speciality Coffee | Dubai,"One Central, Dubai World Trade Centre - Office No 4 - Sheikh Zayed Rd - Trade Center Second - Dubai - United Arab Emirates",Sheikh Zayed Road,4.4,375,2.0,cafe,,NO,4,40.0,100.0,3312.6767578125,190.0,1788.0,High,1.0,0,0.4139072847682119,1.0,-0.37010910519292317,93.75,0.9999999999825,0.5217391304325142,0,0,0.6974285714285714,0.26516148333590606,1.0,0.0,2.0,GROWING,25.2200907,55.2854384,ChIJRw2lXcZDXz4RbXbf1p3_V5U
Shisha House dubai,Al Attar Tower - Sheikh Zayed Rd - Trade Center Second - DIFC - Dubai - United Arab Emirates,Sheikh Zayed Road,4.8,1597,2.0,Unknown,,NO,14,40.0,100.0,3315.0224609375,190.0,1788.0,High,5.0,1,1.7626931567328918,1.0,0.8256280038919082,114.07142857142857,0.9999999999825,0.5217391304325142,0,0,1.0,0.0,1.0,0.0,2.0,GROWING,25.213103099999998,55.277400099999994,ChIJ5ezEha1DXz4R5vgFbM0qG7s
% ARABICA UAE DUBAI MALL,"Between Markette and Level Shoe District Kids, The Dubai Mall - 1 Ground Floor - Financial Center Rd - Burj Khalifa - Downtown Dubai - Dubai - United Arab Emirates",Downtown Dubai,4.4,1723,2.0,cafe,arabic,YES,45,40.0,100.0,3354.63671875,250.0,1788.0,High,1.0,0,2.106356968215159,0.9622641509433961,-1.199465577448137,38.28888888888889,0.9999999999825,0.7826086956487713,0,0,0.5349999999999999,0.8222682044199447,0.8,0.2,2.0,GROWING,25.1970106,55.278802,ChIJ0fTgMyhoXz4RiTmkmmZD-PU
RAW Coffee Company,"Warehouse Next to RTA Carpark WH10, Cnr 7A and 4A Street - Al Qouz Ind.first - Al Manara - Dubai - United Arab Emirates",Other,4.6,2579,2.0,cafe,,NO,0,34.86,87.14,2956.8603515625,,1558.17,High,2.0,0,8.034267912772586,0.994535519125683,-0.03624510464675482,2579.0,0.8714499999847493,0.478260869563138,0,0,0.8060219780219781,0.1643000545029512,1.0,0.0,2.0,GROWING,25.1508404,55.2271809,ChIJbSAmv89rXz4ROS45tG_g-t4
Bacha Coffee Dubai Mall,"Unit 311A Fashion Avenue Expansion, The Dubai Mall - First Floor - Burj Khalifa - Downtown Dubai - Dubai - United Arab Emirates",Downtown Dubai,4.4,547,2.0,cafe,,NO,37,40.0,100.0,3354.63671875,250.0,1788.0,High,2.0,1,0.6687041564792175,0.9622641509433961,-1.199465577448137,14.783783783783784,0.9999999999825,0.7826086956487713,0,0,1.0,0.0,1.0,0.0,2.0,GROWING,25.1989083,55.2763189,ChIJzQhW-HBDXz4RJ9fV6DzjaKI
Peet's Coffee,"City, Dubai, City Walk 2 - Ground Floor - 33 Al Safa St - Al Wasl - Jumeirah - Dubai - United Arab Emirates",City Walk,4.9,1393,2.5,cafe,,NO,7,40.0,100.0,3321.885986328125,240.0,1788.0,High,2.0,0,0.6671455938697318,1.0,1.1874586422605637,199.0,0.9999999999825,0.7391304347793951,0,0,0.9468,0.08689764093460764,1.0,0.0,2.0,GROWING,25.2087175,55.2625506,ChIJfbf2zK1DXz4RBmDIbA9Bz7Y
Peet's Coffee,"Star Atrium, Lower Ground Lower Ground Floor, Dubai Mall - Financial Ctr St - Burj Khalifa - Downtown Dubai - Dubai - United Arab Emirates",City Walk,4.9,2167,2.5,cafe,,NO,7,40.0,100.0,3321.885986328125,240.0,1788.0,High,2.0,0,1.0378352490421456,1.0,1.1874586422605637,309.57142857142856,0.9999999999825,0.7391304347793951,0,0,0.6799999999999999,0.7155417527999327,0.8,0.2,4.0,GROWING,25.1963243,55.278163,ChIJSdvvUPVpXz4RuqG0qErtJXE
Bageri Form,Building 4 - Zaa'beel Second - Dubai Design District - Dubai - United Arab Emirates,D3 Design District,4.0,1026,2.0,cafe,dessert,YES,5,32.0,80.0,3297.1923828125,180.0,1430.4,Medium,2.0,0,1.008849557522124,1.0,-1.6259840180865108,205.2,0.799999999986,0.478260869563138,0,0,0.96,0.08944271909999156,1.0,0.0,2.0,GROWING,25.1883494,55.296828399999995,ChIJFbnsJtppXz4RzuiTxoFlCjk
OTAKU,Zaa'beel Second - Dubai Design District - Dubai - United Arab Emirates,D3 Design District,4.4,895,2.0,cafe,japanese,YES,5,32.0,80.0,3297.1923828125,180.0,1430.4,Medium,2.0,0,0.880039331366765,1.0,-0.06503936072346016,179.0,0.799999999986,0.478260869563138,0,0,0.6799999999999999,0.13038404810405302,1.0,0.0,2.0,GROWING,25.189058,55.2979201,ChIJO-fTufhpXz4RhaqX2PzRLUI
Joud Coffee Dubai Mall,Unit GS-229 - The District - Dubai Mall - Dubai - United Arab Emirates,Dubai Mall,4.7,365,3.0,cafe,,NO,41,40.0,100.0,3354.63671875,300.0,1788.0,High,1.0,0,0.30190239867659224,1.0,-0.2770086293974016,8.902439024390244,0.9999999999825,0.9999999999956523,1,0,0.8865714285714287,0.10837199728674546,1.0,0.0,2.0,GROWING,25.198723599999997,55.2800258,ChIJhyhf1X5DXz4R4PAGYA1DasU
Rx Coffee Apothecary - Jumeirah,Dubai - Jumeirah - Jumeira Third - Dubai - United Arab Emirates,Jumeirah,4.7,2135,2.0,cafe,,NO,2,37.14,92.86,3201.789794921875,160.0,1660.23,High,4.0,0,2.057831325301205,0.972972972972973,0.32314586413617635,1067.5,0.9285499999837508,0.39130434782438567,0,0,1.0,0.0,1.0,0.0,2.0,GROWING,25.1908873,55.236912399999994,ChIJO1FsUJBDXz4Rr8ld3NkxLfM
"Pedja's Kraft Koffee - Coffee Roastery, Specialty Coffee Beans, Breakfast, Pizza & More | Al Sufouh, Barsha",Lavender Garden Suites - Shop N. 3 - Al Sufouh - Al Sufouh 1 - Dubai - United Arab Emirates,Other,4.8,468,2.0,cafe,italian,YES,1,33.14,82.86,2313.53271484375,,1481.43,Medium,2.0,0,1.4579439252336448,0.994535519125683,0.6967114559876235,468.0,0.8285499999855008,0.478260869563138,0,0,0.8786666666666667,0.2121922608286069,1.0,0.0,2.0,GROWING,25.1110761,55.1790337,ChIJ6RfGeFRrXz4RlKJrlwy1rSc
Blanco Specialty Coffee,729 Jumeira St - Umm Suqeim Second - Umm Suqeim 2 - Dubai - United Arab Emirates,Umm Suqeim,4.6,414,2.0,cafe,dessert,YES,2,32.57,81.43,2907.912841796875,150.0,1455.91,Medium,1.0,0,0.9098901098901099,0.9473684210526315,0.5547001962252274,207.0,0.8142749999857505,0.3478260869550095,0,0,0.99,0.022360679774997918,1.0,0.0,4.0,GROWING,25.153582399999998,55.2026483,ChIJNdYepAprXz4R-P39HOT0-IA
Doppio Roasters,Unnamed Road - 67WG+Q8M - شارع الميناء - مدينة دبي الملاحية - الميناء - دبي - United Arab Emirates,Other,4.8,87,2.0,cafe,,NO,1,40.0,100.0,3273.56005859375,,1788.0,High,0.0,0,0.27102803738317754,0.994535519125683,0.6967114559876235,87.0,0.9999999999825,0.478260869563138,0,0,0.85,0.15000000000000002,1.0,0.0,2.0,GROWING,25.246882,55.2757776,ChIJ5ePoTLtDXz4Rjyo8LGlim3c
Coterra Coffee Roasters,18 9th St - Umm Ramool - Dubai - United Arab Emirates,Other,4.8,450,2.0,cafe,,NO,0,30.86,77.14,3309.447265625,,1379.37,Medium,2.0,0,1.4018691588785046,0.994535519125683,0.6967114559876235,450.0,0.7714499999864992,0.478260869563138,0,0,0.792,0.3637581614204691,0.8,0.0,2.0,GROWING,25.2311966,55.3631323,ChIJibtn_ABdXz4RY_2LFpZqYuI
Grind Me Fine Coffee House (Specialty Coffee),Shop S20 & - S21 Street 38 - Al Barsha First - Al Barsha - Dubai - United Arab Emirates,Al Barsha,4.9,422,2.0,cafe,,NO,0,40.0,100.0,2824.974853515625,130.0,1788.0,High,2.0,0,0.8115384615384615,1.0,0.8933250005738379,422.0,0.9999999999825,0.2608695652162571,0,0,1.0,0.0,1.0,0.0,2.0,GROWING,25.1130422,55.191516899999996,ChIJQwkzOx1rXz4RvB4oc8dGWKE
Caffeine Coffee Roaster,Start City Walk Boulevard - Happiness St - Al Wasl - Dubai - United Arab Emirates,City Walk,4.7,285,2.5,cafe,,NO,6,40.0,100.0,3310.637451171875,240.0,1788.0,High,1.0,0,0.13649425287356323,1.0,0.219899748566769,47.5,0.9999999999825,0.7391304347793951,0,0,0.9866666666666667,0.029814239699997212,1.0,0.0,2.0,GROWING,25.2035172,55.2620807,ChIJE4472mBDXz4RN-EvO5WYtsQ
Roasters Specialty Coffee House Sobha Hartland,"Sobha Hartland, The terrace residence - Shop no - 01 - Al Merkadh - Nad Al Sheba 1 - Dubai - United Arab Emirates",Other,4.7,446,2.0,cafe,,NO,1,15.43,38.57,3321.52099609375,,689.69,Low,0.0,0,1.3894080996884735,0.994535519125683,0.330233175670436,446.0,0.3857249999932496,0.478260869563138,0,0,0.76,0.433589667773576,0.8,0.0,2.0,GROWING,25.1769271,55.3113452,ChIJQ0kMtYtpXz4RxRv5SxYMMZw
Ibric,Wafi Mall - Ground floor - NBD entrance - Umm Hurair Second - Dubai - United Arab Emirates,Other,4.8,306,2.0,cafe,,NO,0,37.71,94.29,3367.0615234375,,1685.74,High,1.0,0,0.9532710280373832,0.994535519125683,0.6967114559876235,306.0,0.9428249999835012,0.478260869563138,0,0,1.0,0.0,1.0,0.0,2.0,GROWING,25.2294901,55.318166399999996,ChIJpc7kg19dXz4RMGGnKi5Im6o
"ROAST Speciality Coffee, Dubai Science Park",Dubai Science Park - البرشاء جنوب الثانية - جنوب البرشاء - دبي - United Arab Emirates,Other,4.8,277,2.0,cafe,,NO,0,15.14,37.86,2824.5419921875,,676.83,Low,0.0,0,0.8629283489096573,0.994535519125683,0.6967114559876235,277.0,0.3785499999933758,0.478260869563138,0,0,1.0,0.0,1.0,0.0,4.0,GROWING,25.074868799999997,55.2400145,ChIJ71TFaEJvXz4RZyoXWZqdG98
MOY SPECIALTY COFFEE,3 31A St - Umm Suqeim Second - Umm Suqeim - Dubai - United Arab Emirates,Umm Suqeim,4.8,418,2.0,cafe,,NO,3,32.57,81.43,2907.912841796875,150.0,1455.91,Medium,2.0,0,0.9186813186813186,0.9473684210526315,1.664100588675687,139.33333333333334,0.8142749999857505,0.3478260869550095,0,0,0.0,0.0,0.5,0.1,1.0,STABLE,25.1531194,55.1998943,ChIJY1S67ZlrXz4RjgYIKAZP5n4
Specialty Batch Coffee Roastery,Shed 3A - Marina Cubes Street - Madinat Dubai Al Melaheyah - Port Rashid - Dubai - United Arab Emirates,Dubai Marina,4.8,36,2.0,cafe,,NO,2,24.0,60.0,3150.76904296875,200.0,1072.8,Medium,0.0,0,0.04290822407628129,1.0,0.8211733521770351,18.0,0.5999999999895,0.5652173913018904,0,0,0.0,0.0,0.5,0.1,1.0,STABLE,25.2585674,55.272773799999996,ChIJrT4CeelpXz4RNWMlvl9DiK4
"SCORE STORE All Coffee Solutions | Machines, Equipment, Beans & Training",Jaddaf Views Building Shop 5 - الجداف - دبي - United Arab Emirates,Other,4.9,240,2.0,cafe,,NO,0,36.0,90.0,3366.465576171875,,1609.2,High,2.0,0,0.7476635514018691,0.994535519125683,1.0631897363048144,240.0,0.8999999999842501,0.478260869563138,0,0,0.96,0.08944271909999157,1.0,0.0,1.5,GROWING,25.2208374,55.3226954,ChIJ-yanM25dXz4Rh3rGNnbXDqc
Boon Coffee Roasters Downtown,Forte Tower - 1 Sheikh Mohammed bin Rashid Blvd - Burj Khalifa - Downtown Dubai - Dubai - United Arab Emirates,Downtown Dubai,4.9,90,2.0,cafe,,NO,7,40.0,100.0,3327.620361328125,250.0,1788.0,High,0.0,0,0.1100244498777506,0.9622641509433961,1.0009928559998849,12.857142857142858,0.9999999999825,0.7826086956487713,0,0,1.0,0.0,1.0,0.0,1.5,GROWING,25.1958296,55.2694645,ChIJY4w1meRDXz4RGC3bxG2Lzfo
Variety Specialty coffee,Mirdif Avenue Building - مردف - دبي - United Arab Emirates,Mirdif,4.5,328,2.0,cafe,,NO,1,28.0,70.0,3200.18994140625,120.0,1251.6,Medium,2.0,0,1.0,1.0,-0.5773502691896257,328.0,0.69999999998775,0.21739130434688092,0,0,0.9423809523809524,0.09601469086383609,1.0,0.0,1.5,GROWING,25.232460399999997,55.434423599999995,ChIJeYKTChxhXz4R08K4vDgkOcM
Grandmother Roastery,The Shed Warehouse Warehouse 18 - القوز الصناعية الثالثة - القوز - دبي - United Arab Emirates,Other,4.6,182,2.0,cafe,,NO,1,40.0,100.0,2917.86376953125,,1788.0,High,1.0,0,0.5669781931464174,0.994535519125683,-0.03624510464675482,182.0,0.9999999999825,0.478260869563138,0,0,0.8800000000000001,0.10954451150103317,1.0,0.0,2.0,GROWING,25.1225454,55.2117304,ChIJrZ7COX5pXz4Rg8-K7-agYGA
خطوة جمل Camel Step,73B St - Al Satwa - Dubai - United Arab Emirates,Satwa,4.6,577,2.0,cafe,,NO,7,40.0,100.0,3279.29638671875,85.0,1788.0,High,2.0,0,1.3024830699774266,1.0,-0.3956282840374751,82.42857142857143,0.9999999999825,0.06521739130406427,0,0,0.82,0.4024922359499621,0.8,0.0,1.5,GROWING,25.2132458,55.273484499999995,ChIJG_jHeLhDXz4RP6f885uxzBc
Scarab Coffee,JAMS Logistics Bldg - Warehouse 34 4A St - Al Qusais Ind. First - Dubai - United Arab Emirates,Other,4.8,67,2.0,cafe,arabic,YES,0,31.43,78.57,2984.29296875,,1404.89,Medium,1.0,0,0.2087227414330218,0.994535519125683,0.6967114559876235,67.0,0.7857249999862497,0.478260869563138,0,0,0.9737500000000001,0.05869678440936947,1.0,0.0,4.0,GROWING,25.2832172,55.3798039,ChIJl8zIEEJdXz4RqtMbVYQUKlU
Once Speciality Coffee Shop,Iliyaa 4 - 47 23rd St - Al Satwa - Dubai - United Arab Emirates,Satwa,4.9,310,2.0,cafe,,NO,2,40.0,100.0,3303.2685546875,85.0,1788.0,High,1.0,0,0.6997742663656885,1.0,1.5825131361498888,155.0,0.9999999999825,0.06521739130406427,0,0,0.9445,0.10201715542005674,1.0,0.0,1.5,GROWING,25.2228719,55.2772605,ChIJze8cledDXz4RpNTQ-sHPECo
PRESS SPECIALTY COFFEE - DUBAI,Etihad Mall - Mirdif - Muhaisnah - Dubai - United Arab Emirates,Mirdif,4.5,210,2.0,cafe,,NO,0,28.0,70.0,3314.0888671875,120.0,1251.6,Medium,1.0,0,0.6402439024390244,1.0,-0.5773502691896257,210.0,0.69999999998775,0.21739130434688092,0,0,0.53,0.6160357132504576,0.6,0.2,2.0,GROWING,25.2370678,55.4223176,ChIJtcpHKwhfXz4RobOvXmXprA8
Chocolate Molecule - Pastry Lab | Speciality Coffee,Vita Mall - Al Wasl Rd - near Emirates NBD - Jumeirah - Jumeirah 1 - Dubai - United Arab Emirates,Jumeirah,4.9,229,2.0,dessert,cafe,YES,2,40.0,100.0,3307.873046875,160.0,1788.0,High,1.0,0,0.22072289156626507,0.972972972972973,1.2538059528483623,114.5,0.9999999999825,0.39130434782438567,0,0,1.0,0.0,1.0,0.0,1.5,GROWING,25.2112283,55.2558121,ChIJuw4Cc01DXz4RdI6mGpE-rgs
Domicile Coffee,"P02 Level, Central Park Office Tower - Omlaat Street - next to Spinneyes & Federal Tax Authority - Zaa'beel Second - DIFC - Dubai - United Arab Emirates",DIFC,4.8,230,3.0,cafe,,NO,10,40.0,100.0,3369.748291015625,220.0,1788.0,High,2.0,0,0.5897435897435898,1.0,0.8591155865723994,23.0,0.9999999999825,0.6521739130406428,1,0,0.0,0.0,0.5,0.1,1.0,STABLE,25.205450799999998,55.2746249,ChIJqyu3MNhlXz4RzJiSwhr80G0
Encounter MOE,مول الامارات - Sheikh Zayed Rd - Al Barsha First - Al Barsha - Dubai - United Arab Emirates,Sheikh Zayed Road,4.7,666,2.0,cafe,,NO,4,40.0,100.0,2874.15283203125,190.0,1788.0,High,1.0,0,0.7350993377483444,1.0,0.526693726620701,166.5,0.9999999999825,0.5217391304325142,0,0,1.0,0.0,1.0,0.0,2.0,GROWING,25.118120299999998,55.2005828,ChIJx8dw0RxrXz4RBa8RgdHZUvI
TRIO,The District - Dubai Mall - Dubai - United Arab Emirates,Dubai Mall,4.8,624,3.0,cafe,,NO,39,40.0,100.0,3354.63671875,300.0,1788.0,High,1.0,0,0.5161290322580645,1.0,0.31658129073988306,16.0,0.9999999999825,0.9999999999956523,1,0,1.0,0.0,1.0,0.0,2.0,GROWING,25.1976917,55.2807761,ChIJBZZBFgBpXz4Rt6bbAzJtwic
Be Speciality Coffee,Marrakech St - Umm Ramool - Dubai - United Arab Emirates,Other,4.4,527,2.0,cafe,dessert,YES,0,17.14,42.86,3283.5615234375,,766.23,Low,2.0,0,1.6417445482866044,0.994535519125683,-0.7692016652811299,527.0,0.42854999999250076,0.478260869563138,0,0,0.77,0.43531597719357834,0.8,0.0,0.6666666666666666,STABLE,25.236618,55.3629308,ChIJV54MxjBdXz4RXCjdL-j3ELc
Hedwig Specialty Coffee هيدوك للقهوة المختصة,shop 13 - Nouras Street - Al Jadaf - Dubai - United Arab Emirates,Other,4.8,154,2.0,cafe,,NO,0,26.57,66.43,3366.85986328125,,1187.71,Medium,1.0,0,0.4797507788161994,0.994535519125683,0.6967114559876235,154.0,0.6642749999883755,0.478260869563138,0,0,0.9911999999999999,0.01967739820199816,1.0,0.0,0.25,DECLINING,25.2152088,55.3176384,ChIJy1dubbVdXz4RwWQsHPXeWzA
Air Speciality Coffee.,545 Jumeira St - Umm Suqeim First - Umm Suqeim 1 - Dubai - United Arab Emirates,Umm Suqeim,4.5,455,2.0,cafe,,NO,1,34.29,85.71,2996.413330078125,150.0,1532.66,High,1.0,0,1.0,0.9473684210526315,0.0,455.0,0.8571749999849989,0.3478260869550095,0,0,0.96,0.08944271909999156,1.0,0.0,4.0,GROWING,25.173072599999998,55.2187634,ChIJK017iedrXz4Rv7YcPD9PfjM
"Roast Speciality Coffee, Marina",Roast Speciality Coffee - Marsa Dubai - Dubai Marina - Dubai - United Arab Emirates,Dubai Marina,4.6,553,2.0,cafe,,NO,0,40.0,100.0,2994.468994140625,200.0,1788.0,High,2.0,0,0.6591179976162098,1.0,-0.6021937915964988,553.0,0.9999999999825,0.5652173913018904,0,0,1.0,0.0,1.0,0.0,2.0,GROWING,25.0688793,55.1302337,ChIJ06amBbATXz4RGlZWIJ5XWNI
Fairouz Coffee and Roastery,Latifa Bint Hamdan St - Al Qouz Ind.first - Al Quoz - Dubai - United Arab Emirates,Al Quoz,4.5,239,2.0,cafe,,NO,1,39.43,98.57,3052.322998046875,110.0,1762.49,High,1.0,0,1.0,1.0,-0.20334751282094532,239.0,0.9857249999827495,0.17391304347750475,0,0,0.68,0.6099180272790763,0.8,0.2,4.0,GROWING,25.1550495,55.235679399999995,ChIJma7VYYVpXz4R-Txwg8cVWRk
CAPHE Specialty Coffee,505 Tripoli St - Al Warqa - Al Warqa'a Third - Dubai - United Arab Emirates,Other,4.4,115,2.0,cafe,,NO,0,16.57,41.43,3159.5107421875,,740.71,Low,1.0,0,0.3582554517133956,0.994535519125683,-0.7692016652811299,115.0,0.4142749999927504,0.478260869563138,0,0,0.54,0.4219004621945798,0.8,0.0,0.25,DECLINING,25.2067376,55.424918399999996,ChIJ7Vq3a99nXz4RGYxWuiu86zY
Top One Coffee Roastery LLC,Warehouse 7 - Al Jerf Industrial 1 - Ajman - United Arab Emirates,Other,4.8,54,2.0,cafe,,NO,0,21.14,52.86,3587.419921875,,945.03,Medium,0.0,0,0.16822429906542055,0.994535519125683,0.6967114559876235,54.0,0.5285499999907508,0.478260869563138,0,0,0.4531428571428571,0.7925407348058083,0.6,0.2,0.25,DECLINING,25.4316535,55.514269199999994,ChIJUfl-hYdpXz4RTMDZkgJfwhQ
Cafe Gourmand,Al Sukook Street - Zaa'beel Second - DIFC - Dubai - United Arab Emirates,DIFC,4.8,80,3.0,cafe,,NO,19,40.0,100.0,3315.0224609375,220.0,1788.0,High,2.0,0,0.20512820512820512,1.0,0.8591155865723994,4.2105263157894735,0.9999999999825,0.6521739130406428,1,0,0.0,0.0,0.5,0.1,1.0,STABLE,25.2093302,55.2767074,ChIJTS7hKMZDXz4R8R9_6fjso_w
Seven Fortunes Coffee Roasters,"Warehouse 12, Al Asayel St - شارع - ٣١٨ - القوز الصناعية الثانية - القوز - دبي - United Arab Emirates",Other,4.6,274,2.0,cafe,,NO,1,38.29,95.71,2870.34033203125,,1711.46,High,0.0,0,0.8535825545171339,0.994535519125683,-0.03624510464675482,274.0,0.9571749999832488,0.478260869563138,0,0,0.9400000000000001,0.1341640786499874,1.0,0.0,0.25,DECLINING,25.1403408,55.2400894,ChIJLTzqXEVpXz4RBoAIcdx2aHQ
Cortado Lab Specialty Coffee,Dragon Mart 1 Terminus - Dubai - ورسان الأولى - مدينة دبي العالمية - دبي - United Arab Emirates,Other,4.8,45,2.0,cafe,,NO,0,29.71,74.29,3184.43603515625,,1328.14,Medium,1.0,0,0.14018691588785046,0.994535519125683,0.6967114559876235,45.0,0.7428249999870011,0.478260869563138,0,0,0.0,0.0,0.5,0.1,1.0,STABLE,25.1722756,55.422796899999994,ChIJw5M_IqRhXz4RT-75OtL0XA4
The Coffee,Unit IH-00-01-GF-RT - Innovation One Area Name - Level GF - 01-0 - زعبيل الثانية - DIFC - دبي - United Arab Emirates,Downtown Dubai,5.0,24,2.0,cafe,,NO,42,40.0,100.0,3354.63671875,250.0,1788.0,High,1.0,0,0.029339853300733496,0.9622641509433961,1.4410845426894878,0.5714285714285714,0.9999999999825,0.7826086956487713,0,0,0.0,0.0,0.5,0.1,1.0,STABLE,25.206887599999998,55.2760405,ChIJH1TK3ShDXz4RIRRoc3C0CcQ
Cavo Espresso Bar,Al beteel street - Umm Suqeim Second - Umm Suqeim 2 - Dubai - United Arab Emirates,Umm Suqeim,4.7,427,2.0,cafe,,NO,1,34.86,87.14,2836.9560546875,150.0,1558.17,High,3.0,0,0.9384615384615385,0.9473684210526315,1.1094003924504596,427.0,0.8714499999847493,0.3478260869550095,0,0,0.9650384615384615,0.051056225533038326,1.0,0.0,0.6666666666666666,STABLE,25.1446629,55.1986971,ChIJvzfaDdhrXz4RnXEfZjnvxUo
Baristas' Corner Business Bay,Canal Central Hotel - Marasi Dr - Business Bay - Dubai - United Arab Emirates,Business Bay,4.4,154,2.0,cafe,,NO,3,37.14,92.86,3361.7880859375,180.0,1660.23,High,1.0,0,0.38308457711442784,1.0,-0.9316625435390875,51.333333333333336,0.9285499999837508,0.478260869563138,0,0,0.0,0.0,0.5,0.1,1.0,STABLE,25.1805797,55.2665388,ChIJ40MP3k9pXz4R9BfKhRpzEFU
Ores Cafe,Street - 442 شارع الوصل - opposite Boxpark - جميرا - جميرا الثانية - دبي - United Arab Emirates,Other,4.7,894,2.0,cafe,,NO,3,38.86,97.14,3276.218994140625,,1736.97,High,3.0,0,2.7850467289719627,0.994535519125683,0.330233175670436,298.0,0.9714499999829993,0.478260869563138,0,0,1.0,0.0,1.0,0.0,2.0,GROWING,25.2024328,55.250255599999996,ChIJh_3J4UNDXz4Rk_Q7lARKhYY
High romance cafe,HHHR Tower - Sheikh Zayed Rd - next to Macdonalds - Trade Center First - Dubai - United Arab Emirates,Sheikh Zayed Road,3.8,90,2.0,cafe,,NO,6,40.0,100.0,3303.2685546875,190.0,1788.0,High,1.0,0,0.09933774834437085,1.0,-2.163714768820174,15.0,0.9999999999825,0.5217391304325142,0,0,0.0,0.0,0.5,0.1,1.0,STABLE,25.2213286,55.2812707,ChIJI6yQYZRDXz4REXHgjoXsTT0
BREW BROTHERS CAFE,6B Marasi Dr - Business Bay - Dubai - United Arab Emirates,Business Bay,4.8,28,2.0,cafe,,NO,4,40.0,100.0,3345.652099609375,180.0,1788.0,High,0.0,0,0.06965174129353234,1.0,0.6493405606484525,7.0,0.9999999999825,0.478260869563138,0,0,0.0,0.0,0.5,0.1,1.0,STABLE,25.1886672,55.2704365,ChIJuTXfR-dpXz4RxifEpmPem0s
Lavazza - Bur Dubai,"Ground Floor, Citymax Hotels - شارع الكويت - المنخول - دبي - United Arab Emirates",Other,3.8,21,2.0,cafe,,NO,0,40.0,100.0,3360.383544921875,,1788.0,High,0.0,0,0.06542056074766354,0.994535519125683,-2.968071347184265,21.0,0.9999999999825,0.478260869563138,0,0,0.0,0.0,0.5,0.1,1.0,STABLE,25.2511192,55.292042599999995,ChIJ90b-ih1DXz4RQQLc5K4RP3w
The Espresso Lab - Roastery,Mag warehouse Unit S04-104 Al Quoz Logistics Park - القوز الصناعية الثانية - القوز - دبي - United Arab Emirates,Al Quoz,4.4,105,2.0,cafe,,NO,0,32.57,81.43,3139.773193359375,110.0,1455.91,Medium,0.0,0,0.4393305439330544,1.0,-0.639092183151539,105.0,0.8142749999857505,0.17391304347750475,0,0,1.0,0.0,1.0,0.0,0.25,DECLINING,25.141598899999998,55.257971399999995,ChIJ67Qgfr9pXz4RfmqLrnjJUMQ
ROSES CAFE,Azizi Riviera 13 - Al Merkadh - Nad Al Sheba 1 - Dubai - United Arab Emirates,Other,4.6,69,2.0,cafe,,NO,0,15.14,37.86,3207.2734375,,676.83,Low,0.0,0,0.21495327102803738,0.994535519125683,-0.03624510464675482,69.0,0.3785499999933758,0.478260869563138,0,0,0.72,0.3898717737923586,0.8,0.0,2.0,GROWING,25.172260599999998,55.3010045,ChIJqQD5UoRpXz4RkSMao0O7VKk
Espresso Riverland,W294+VQG - Saih Shuaib 1 - Dubai - United Arab Emirates,Other,4.9,17,2.0,cafe,,NO,0,23.43,58.57,596.1318969726562,,1047.29,Medium,0.0,0,0.0529595015576324,0.994535519125683,1.0631897363048144,17.0,0.5857249999897496,0.478260869563138,0,0,0.0,0.0,0.5,0.1,1.0,STABLE,24.919595899999997,55.006609399999995,ChIJvYgEEAAPXz4RFvzPvhZTFLU
Mood Espresso Café,The Dubai Mall Lower ground floor - Burj Khalifa - Downtown Dubai - Dubai - United Arab Emirates,Downtown Dubai,4.0,45,2.0,cafe,,NO,41,40.0,100.0,3354.63671875,250.0,1788.0,High,0.0,0,0.0550122249388753,0.9622641509433961,-2.9598323242065563,1.0975609756097562,0.9999999999825,0.7826086956487713,0,0,0.0,0.0,0.5,0.1,1.0,STABLE,25.198519599999997,55.2796236,ChIJX2FlBXxdXz4R7XC5RtdOBNw
Ilio Cafe,"Ilio Cafe, Burj Vista - Sheikh Mohammed bin Rashid Blvd - Burj Khalifa - Downtown Dubai - Dubai - United Arab Emirates",Downtown Dubai,4.8,179,2.0,dessert,cafe,YES,10,40.0,100.0,3327.620361328125,250.0,1788.0,High,2.0,0,0.21882640586797067,0.9622641509433961,0.5609011693102781,17.9,0.9999999999825,0.7826086956487713,0,0,1.0,0.0,1.0,0.0,0.6666666666666666,STABLE,25.1981249,55.271091299999995,ChIJL4zE00BDXz4RXUTqi9bSlzk
Depresso cafe,Jumeira St - Umm Suqeim Second - Jumeirah 3 - Dubai - United Arab Emirates,Umm Suqeim,4.3,561,2.0,cafe,,NO,1,34.86,87.14,2836.9560546875,150.0,1558.17,High,0.0,0,1.232967032967033,0.9473684210526315,-1.1094003924504596,561.0,0.8714499999847493,0.3478260869550095,0,0,0.6475,0.573394497706422,0.8,0.2,0.6666666666666666,STABLE,25.149353599999998,55.1984128,ChIJDUKUoEZqXz4RpNWR_YdF3rQ
The Choco Monarch,Al Ghurair Centre - 2nd Level - Al Rigga Rd - Al Muraqqabat - Deira - Dubai - United Arab Emirates,Deira,4.6,2726,2.0,cafe,dessert,YES,2,40.0,100.0,3327.696044921875,90.0,1788.0,High,3.0,0,2.5032139577594124,1.0,0.26549712202679476,1363.0,0.9999999999825,0.08695652173875237,0,0,0.665,0.4594834055763059,0.6,0.0,2.0,GROWING,25.268125899999998,55.3177101,ChIJbUE4rMtcXz4R0upmLWw4nVg
Cafe - EllaMia,Marasi Dr - Business Bay - Dubai - United Arab Emirates,Business Bay,4.6,74,2.0,cafe,,NO,2,34.29,85.71,3297.1923828125,180.0,1532.66,High,0.0,0,0.18407960199004975,1.0,-0.14116099144531927,37.0,0.8571749999849989,0.478260869563138,0,0,0.9199999999999999,0.10954451150103317,1.0,0.0,0.25,DECLINING,25.1844571,55.2922707,ChIJbZf6GPppXz4Rf-WZCwNSnLA
PLACE Cafe,69B St - Jumeirah - Jumeirah 1 - Dubai - United Arab Emirates,Jumeirah,4.3,334,2.0,cafe,,NO,6,40.0,100.0,3307.873046875,160.0,1788.0,High,4.0,0,0.3219277108433735,0.972972972972973,-1.5381743132881958,55.666666666666664,0.9999999999825,0.39130434782438567,0,0,0.7864000000000001,0.2729923075839317,1.0,0.0,0.0,DECLINING,25.2159184,55.2566427,ChIJweorR4dDXz4R85qPKpbQN8o
100 Cafe,"Jumeirah Beach Road, 53B Street, Villa 21 Jumeirah 1, Postcode: 112019 - Dubai - جميرا - جميرا ١ - دبي - United Arab Emirates",Jumeirah,4.8,71,2.0,cafe,,NO,4,40.0,100.0,3214.366943359375,160.0,1788.0,High,2.0,0,0.06843373493975903,0.972972972972973,0.7884759084922672,17.75,0.9999999999825,0.39130434782438567,0,0,0.0,0.0,0.5,0.1,1.0,STABLE,25.2209106,55.2591538,ChIJuUTT6PRDXz4RKIkPuux54xo
Le Veyron Cafe,Gevora Hotel - 101 Sheikh Zayed Rd - Trade Center Second - DIFC - Dubai - United Arab Emirates,Sheikh Zayed Road,4.8,151,2.0,cafe,,NO,17,40.0,100.0,3315.0224609375,190.0,1788.0,High,3.0,1,0.16666666666666666,1.0,0.8256280038919082,8.882352941176471,0.9999999999825,0.5217391304325142,0,0,0.985,0.03354101966249685,1.0,0.0,0.6666666666666666,STABLE,25.212424799999997,55.276989099999994,ChIJCefJoY5CXz4R1RHtOMtnHCw
DELIZIE CAFFÈ GOURMET,Dubai Harbour Yacht Club - Marsa Dubai - Dubai International Marine Club - Dubai - United Arab Emirates,Other,4.5,212,2.0,cafe,,NO,0,35.43,88.57,2813.521484375,,1583.69,High,2.0,0,0.660436137071651,0.994535519125683,-0.4027233849639424,212.0,0.8857249999844996,0.478260869563138,0,0,1.0,0.0,1.0,0.0,4.0,GROWING,25.0918834,55.1413404,ChIJRc8YSrxrXz4RpXFqVcCIx0w
Bellini Cafe Dubai,Water Canal - Jumeirah - Jumeirah 2 - Dubai - United Arab Emirates,Jumeirah,4.7,306,2.0,dessert,italian,YES,4,36.0,90.0,3299.60888671875,160.0,1609.2,High,2.0,1,0.29493975903614456,0.972972972972973,0.32314586413617635,76.5,0.8999999999842501,0.39130434782438567,0,0,0.8800000000000001,0.2683281572999748,1.0,0.0,2.0,GROWING,25.1936291,55.242258299999996,ChIJO2vVd9VDXz4RJZ1HrLPU0mw
Pind cafe,"Downtown, Millennium Tower - Burj Khalifa St - Business Bay - Dubai - United Arab Emirates",Downtown Dubai,4.8,304,2.0,cafe,,NO,3,40.0,100.0,3327.620361328125,250.0,1788.0,High,2.0,0,0.37163814180929094,0.9622641509433961,0.5609011693102781,101.33333333333333,0.9999999999825,0.7826086956487713,0,0,1.0,0.0,1.0,0.0,0.0,DECLINING,25.194801899999998,55.265669700000004,ChIJm8DtSgBDXz4R-YRRFYg2Ifk
Coffee and Roses,B1 Mall - Al Barsha First - Al Barsha - Dubai - United Arab Emirates,Al Barsha,4.8,520,2.0,cafe,,NO,5,40.0,100.0,2884.17041015625,130.0,1788.0,High,1.0,0,1.0,1.0,0.5459208336840102,104.0,0.9999999999825,0.2608695652162571,0,0,1.0,0.0,1.0,0.0,2.0,GROWING,25.115474799999998,55.1994037,ChIJ75cx0kRrXz4RvvRCSUv0fYU
Barista Espresso,"459X+3CF - Sheikh Zayed Road, 4th Interchange - Al Barsha First - Al Barsha - Dubai - United Arab Emirates",Sheikh Zayed Road,5.0,5,2.0,cafe,,NO,4,40.0,100.0,2841.39599609375,190.0,1788.0,High,0.0,0,0.005518763796909493,1.0,1.423496558434325,1.25,0.9999999999825,0.5217391304325142,0,0,0.0,0.0,0.5,0.1,1.0,STABLE,25.117682199999997,55.198545599999996,ChIJUQAZwr5rXz4R_LFTUD_iQ7Y
Sfumato Coffee,The Opus by OMNIYAT - designed by Zaha Hadid - الخليج التجاري - دبي - United Arab Emirates,Other,3.9,85,2.0,cafe,,NO,1,0.0,0.0,3345.652099609375,,0.0,,1.0,1,0.26479750778816197,0.994535519125683,-2.6015930668670757,85.0,0.0,0.478260869563138,0,0,0.0,0.0,0.5,0.1,1.0,STABLE,25.188704899999998,55.266963399999995,ChIJU3cAW7lx9j4RbO38QEVVRWE
Oath Cafe,342 Al Wasl Rd - Jumeirah - Jumeirah 1 - Dubai - United Arab Emirates,Jumeirah,4.4,113,2.0,cafe,,NO,4,40.0,100.0,3321.885986328125,160.0,1788.0,High,2.0,0,0.10891566265060242,0.972972972972973,-1.0728442689321007,28.25,0.9999999999825,0.39130434782438567,0,0,0.0,0.0,0.5,0.1,1.0,STABLE,25.2152826,55.258941699999994,ChIJuTVLBwBDXz4R7Na6NxH4wL0
The Cafe,Sheikh Mohammed bin Rashid Blvd - Burj Khalifa - Downtown Dubai - Dubai - United Arab Emirates,Downtown Dubai,4.5,8,2.0,cafe,,NO,32,40.0,100.0,3354.63671875,250.0,1788.0,High,0.0,0,0.009779951100244499,0.9622641509433961,-0.7593738907585343,0.25,0.9999999999825,0.7826086956487713,0,0,0.0,0.0,0.5,0.1,1.0,STABLE,25.192852799999997,55.2789648,ChIJCXgtQHhpXz4R9HkDA_-WKkc
Seven Seeds Cafe,Villa 15 51st St - Jumeirah - Jumeirah 1 - Dubai - United Arab Emirates,Jumeirah,4.1,1201,2.0,cafe,,NO,3,40.0,100.0,3214.366943359375,160.0,1788.0,High,3.0,0,1.1575903614457832,0.972972972972973,-2.4688344020003816,400.3333333333333,0.9999999999825,0.39130434782438567,0,0,0.6719999999999999,0.5384421974548429,0.8,0.2,4.0,GROWING,25.2221347,55.2594369,ChIJWT8shHNDXz4RUP_txhjSUoc
Alcatraz Cafe,"EMT metro station exit 1 - metro station, Emirates tower - exit 1 - الوصل - دبي - United Arab Emirates",Other,4.8,290,2.0,cafe,,NO,9,0.0,0.0,3330.054443359375,,0.0,,0.0,0,0.9034267912772586,0.994535519125683,0.6967114559876235,32.22222222222222,0.0,0.478260869563138,0,0,0.96,0.08944271909999157,1.0,0.0,0.0,DECLINING,25.2048217,55.270779399999995,ChIJ9RH_FI1CXz4R7pL7pstIMY0
Susan's Baking Co & Cafe Dubai - The Best American Cafe & Diner,Burj Khalifa - Downtown Dubai - Dubai - United Arab Emirates,Downtown Dubai,4.5,766,2.0,cafe,dessert,YES,18,0.0,0.0,3320.93310546875,250.0,0.0,,2.0,1,0.9364303178484108,0.9622641509433961,-0.7593738907585343,42.55555555555556,0.0,0.7826086956487713,0,0,0.7675,0.44084436029056784,0.8,0.0,2.0,GROWING,25.1946677,55.2830778,ChIJ01GhzZtpXz4R-BLk_SMz1CE
Caribou Coffee - Burj Views,"Bldg. 5, Burj View Towers - Burj Khalifa - Down Town - Dubai - United Arab Emirates",Downtown Dubai,4.2,150,2.0,cafe,dessert,YES,11,0.0,0.0,3322.256591796875,250.0,0.0,,0.0,0,0.18337408312958436,0.9622641509433961,-2.079648950827347,13.636363636363637,0.0,0.7826086956487713,0,0,0.0,0.0,0.5,0.1,1.0,STABLE,25.190413099999997,55.281145599999995,ChIJIZ2vfyVoXz4RB53DlPV0xg8
Nightjar Coffee Roasters,Alserkal Avenue Arts & Cultural District - Warehouse G62 - Al Qouz Ind.first - Al Quoz - Dubai - United Arab Emirates,Al Quoz,4.3,899,2.0,cafe,,NO,4,0.0,0.0,2891.599853515625,110.0,0.0,,1.0,0,3.7615062761506275,1.0,-1.0748368534821366,224.75,0.0,0.17391304347750475,0,0,0.8400000000000001,0.260768096208106,1.0,0.0,2.0,GROWING,25.1427285,55.2248847,ChIJiaD_uypqXz4Rq8M0P7SozKQ
Tutti Cafe,Gate Avenue at - زعبيل الثانية - DIFC - دبي - United Arab Emirates,DIFC,4.8,67,3.0,cafe,dessert,YES,17,0.0,0.0,3315.0224609375,220.0,0.0,,0.0,0,0.1717948717948718,1.0,0.8591155865723994,3.9411764705882355,0.0,0.6521739130406428,1,0,1.0,0.0,1.0,0.0,0.0,DECLINING,25.2091414,55.27753870000001,ChIJ89GcbzFDXz4RuDujthsA8Ko
Roasters Specialty Coffee House Dubai Hills,Dubai Hills Estate - ground floor - 5 Park Lane - Hadaeq Sheikh Mohammed Bin Rashid - Dubai - United Arab Emirates,Other,4.7,275,2.0,cafe,,NO,0,15.71,39.29,2142.25927734375,,702.34,Low,3.0,1,0.8566978193146417,0.994535519125683,0.330233175670436,275.0,0.39282499999312614,0.478260869563138,0,0,0.9775,0.05031152949374527,1.0,0.0,2.0,GROWING,25.1115769,55.250743199999995,ChIJ30cOMQBpXz4RiIqnBGaUbFs
"محمصة كريكر للقهوة المختصة KRIKER COFFEE ROASTERS , COFFEE ROASTERY",ليوارة - الحي التراثي -- LIWARA 1 - HERITAGE DISTRICT - SH. Abdulla Bin Rashid Al Nuaimi - شارع الشيخ عبد الله بن راشد النعيمي - Al Bustan - ليوارة 1 - Ajman - United Arab Emirates,Other,4.9,215,2.0,cafe,,NO,0,0.0,0.0,2812.64306640625,,0.0,,0.0,0,0.6697819314641744,0.994535519125683,1.0631897363048144,215.0,0.0,0.478260869563138,0,0,0.0,0.0,0.5,0.1,1.0,STABLE,25.412798199999997,55.4461388,ChIJ8VikOspXXz4RPnSgyK_82VM
Cartel Coffee Roasters,35 60C St - Mirdif - Dubai - United Arab Emirates,Mirdif,4.6,1331,2.0,cafe,,NO,1,0.0,0.0,3200.18994140625,120.0,0.0,,1.0,0,4.057926829268292,1.0,1.1547005383792515,1331.0,0.0,0.21739130434688092,0,0,0.96,0.08944271909999157,1.0,0.0,2.0,GROWING,25.232521,55.432527099999994,ChIJA1Rlq3JhXz4Rl6kbRNM_EYE
Nomads Roastery,89 Al Manama St - Nad Al Sheba - Ras Al Khor Industrial Area 2 - Dubai - United Arab Emirates,Other,4.9,147,2.0,cafe,,NO,0,0.0,0.0,3178.07080078125,,0.0,,2.0,0,0.45794392523364486,0.994535519125683,1.0631897363048144,147.0,0.0,0.478260869563138,0,0,1.0,0.0,1.0,0.0,1.5,GROWING,25.1695428,55.346871199999995,ChIJ6Y-l1HtnXz4RIrv1xaYX5Bg
Roasters Specialty Coffee House Emaar Beachfront,"House Retail Unit;SBE-GF-T1-R 02, Tariaq Bedon Esm - مرسى دبي - دبي - United Arab Emirates",Other,4.7,441,2.0,cafe,,NO,0,0.0,0.0,2813.521484375,,0.0,,0.0,0,1.3738317757009346,0.994535519125683,0.330233175670436,441.0,0.0,0.478260869563138,0,0,1.0,0.0,1.0,0.0,3.0,GROWING,25.097585499999997,55.1409324,ChIJVcY8QrFrXz4RtmlY1RlFbNc
Subko Specialty Coffee Roasters and Bakehouse,Alserkal Avenue - Warehouse 15 - Al Qouz Ind.first - Al Quoz - Dubai - United Arab Emirates,Al Quoz,4.7,156,2.0,cafe,,NO,4,0.0,0.0,2883.401611328125,110.0,0.0,,3.0,1,0.6527196652719666,1.0,0.6681418278402461,39.0,0.0,0.17391304347750475,0,0,0.8666666666666668,0.1732211175219568,1.0,0.0,2.0,GROWING,25.1410008,55.226159100000004,ChIJr-KQtqBpXz4Rwxlgdzbh-4g
Cypher Urban Roastery,"Al Quoz Industrial Area 3, Street 6b, Complex 76, Warehouse no. 2 - القوز الصناعية الثالثة - القوز - دبي - United Arab Emirates",Al Quoz,4.7,253,2.0,Unknown,,NO,2,40.0,100.0,2917.86376953125,110.0,1788.0,High,0.0,0,1.0585774058577406,1.0,0.6681418278402461,126.5,0.9999999999825,0.17391304347750475,0,0,1.0,0.0,1.0,0.0,1.5,GROWING,25.1224432,55.20919560000001,ChIJgT7BrsZrXz4RQuTOVL5PY4o
ABC Coffee Roasters,Offices 3 Building - One Central - Ground Floor - Trade Center Second - Dubai - United Arab Emirates,Other,4.3,1280,2.0,cafe,,NO,4,40.0,100.0,3312.6767578125,,1788.0,High,1.0,0,3.987538940809969,0.994535519125683,-1.1356799455983206,320.0,0.9999999999825,0.478260869563138,0,0,0.76,0.260768096208106,1.0,0.0,2.0,GROWING,25.2207659,55.2848805,ChIJqSLR5oZDXz4RQ-I7-xtGMUc
Emirati Coffee Roastery,14 9b St - القوز الصناعية الثالثة - القوز - دبي - United Arab Emirates,Other,4.7,157,2.0,cafe,,NO,1,0.0,0.0,2904.6025390625,,0.0,,0.0,0,0.48909657320872274,0.994535519125683,0.330233175670436,157.0,0.0,0.478260869563138,0,0,0.72,0.521536192416212,0.8,0.2,0.6666666666666666,STABLE,25.1303472,55.2233094,ChIJs2z8MthrXz4RlCzfkYW_0Mc
Falcon Coffee Roasters,Nadd Al Hamar - Dubai - United Arab Emirates,Other,4.8,140,2.0,cafe,,NO,1,27.14,67.86,3284.255615234375,,1213.23,Medium,1.0,0,0.43613707165109034,0.994535519125683,0.6967114559876235,140.0,0.6785499999881257,0.478260869563138,0,0,1.0,0.0,1.0,0.0,1.5,GROWING,25.1872531,55.3802545,ChIJ42HnwmhnXz4RqEip3mrrbLs
Endorphin Speciality Coffee Roasters,5 Street - Ras Al Khor Industrial Area 1 - Dubai - United Arab Emirates,Other,5.0,19,2.0,cafe,,NO,0,0.0,0.0,3090.259033203125,,0.0,,0.0,0,0.059190031152647975,0.994535519125683,1.429668016622002,19.0,0.0,0.478260869563138,0,0,0.0,0.0,0.5,0.1,1.0,STABLE,25.1778025,55.341523699999996,ChIJUw2ZEaRnXz4RBdpZqKvLRy0
Gold Box Dubai,Warehouse # 7 Building:SMARK 3 Umm Suqeim Rd. East - near Mall of Emirates - Al Goze Industrial Third - القوز - دبي - United Arab Emirates,Umm Suqeim,4.5,221,2.0,Unknown,,NO,1,40.0,100.0,2917.86376953125,150.0,1788.0,High,0.0,0,0.4857142857142857,0.9473684210526315,0.0,221.0,0.9999999999825,0.3478260869550095,0,0,1.0,0.0,1.0,0.0,0.25,DECLINING,25.118102,55.2104022,ChIJLaxkOOZrXz4ROq5bi7MS_JM
ABC Coffee Roasters,Al Khail Rd - Hadaeq Sheikh Mohammed Bin Rashid - Dubai - United Arab Emirates,Other,4.5,1192,2.0,cafe,,NO,4,40.0,100.0,3312.6767578125,,1788.0,High,1.0,0,3.7133956386292835,0.994535519125683,-0.4027233849639424,298.0,0.9999999999825,0.478260869563138,0,0,0.8150000000000001,0.4136725758374611,0.8,0.0,2.0,GROWING,25.1013532,55.240800799999995,ChIJWfR6vLNuXz4ReMjP0XR5QSM
Nusantara Coffee Roasters,Warehouse 16 Nad Al Hamar Rd - Nadd Al Hamar - Dubai - United Arab Emirates,Other,4.5,441,2.0,cafe,,NO,1,28.0,70.0,3284.255615234375,,1251.6,Medium,2.0,0,1.3738317757009346,0.994535519125683,-0.4027233849639424,441.0,0.69999999998775,0.478260869563138,0,0,0.36,0.6542170893518451,0.6,0.4,0.25,DECLINING,25.1893454,55.3788421,ChIJZZAQR-pnXz4RYEzliZoeD7k
THREE Coffee,Street 5b - Al Qouz Ind.first - 1Al Quoz Industrial Area 3 - Dubai - United Arab Emirates,Al Quoz,4.8,171,2.0,cafe,,NO,0,40.0,100.0,2925.48388671875,110.0,1788.0,High,0.0,0,0.7154811715481172,1.0,1.1038864981708398,171.0,0.9999999999825,0.17391304347750475,0,0,0.8150000000000001,0.2571478174124758,1.0,0.0,2.0,GROWING,25.1465586,55.2369258,ChIJD5DdRoppXz4RqDLMLxfR9ZA
Ubec Specialty Coffee Roasters,Dubai Investment Park - 1 - مجمع دبي للاستثمار الأول - دبي - United Arab Emirates,Other,5.0,28,2.0,cafe,,NO,0,12.86,32.14,2877.189697265625,,574.77,Low,0.0,0,0.08722741433021806,0.994535519125683,1.429668016622002,28.0,0.32144999999437424,0.478260869563138,0,0,0.0,0.0,0.5,0.1,1.0,STABLE,24.981798899999998,55.175733699999995,ChIJFVY-OwtzXz4RJM7FpcyuZFE
The Coffee Merchant,"The Coffee Merchant, AG Tower - Business Bay - Dubai - United Arab Emirates",Business Bay,4.9,356,2.0,cafe,,NO,3,36.0,90.0,3361.7880859375,180.0,1609.2,High,1.0,0,0.8855721393034826,1.0,1.04459133669534,118.66666666666667,0.8999999999842501,0.478260869563138,0,0,0.9957142857142858,0.009583148474999076,1.0,0.0,2.0,GROWING,25.1800675,55.2689817,ChIJjbP3zj5pXz4RMN-Upw9VHHM
First Crack Coffee Roasters,3 AL IMAM AL SHAFEE St - Al Hamidiya 1 - Ajman - United Arab Emirates,Other,4.6,116,2.0,cafe,,NO,0,20.57,51.43,3649.955078125,,919.51,Medium,0.0,0,0.3613707165109034,0.994535519125683,-0.03624510464675482,116.0,0.5142749999910003,0.478260869563138,0,0,0.0,0.0,0.5,0.1,1.0,STABLE,25.4103103,55.5170897,ChIJW8SoklP39T4RXCShW6iezyM
The Coffee Pearls AE,Emaar Address Harbour Point - Al Kheeran First - Dubai Creek Harbour - Dubai - United Arab Emirates,Other,5.0,24,2.0,cafe,,NO,2,28.86,72.14,2914.84765625,,1289.97,Medium,0.0,0,0.07476635514018691,0.994535519125683,1.429668016622002,12.0,0.7214499999873742,0.478260869563138,0,0,0.0,0.0,0.5,0.1,1.0,STABLE,25.2079473,55.3434095,ChIJP0kmUrkVXz4RFZYCzeMULro
Crack Coffee Roasters & Cafe,26th St - Al Qouz Ind.fourth - Al Quoz - Dubai - United Arab Emirates,Al Quoz,4.8,49,2.0,cafe,,NO,1,28.57,71.43,2887.900146484375,110.0,1277.11,Medium,0.0,0,0.20502092050209206,1.0,1.1038864981708398,49.0,0.7142749999875004,0.17391304347750475,0,0,0.0,0.0,0.5,0.1,1.0,STABLE,25.1149167,55.2381636,ChIJZXU1cd9pXz4REJ9f1qxXGGM
Rubasse NIR Coffee Roasters,St E1 - Madinat Dubai Al Melaheyah - Dubai - United Arab Emirates,Other,4.7,0,2.0,cafe,,NO,2,21.43,53.57,3150.76904296875,,957.89,Medium,0.0,0,0.0,0.994535519125683,0.330233175670436,0.0,0.5357249999906246,0.478260869563138,0,0,0.0,0.0,0.5,0.1,1.0,STABLE,25.2584074,55.272541999999994,ChIJ5fEsyeNDXz4RW6anIOP22tg
Boon Coffee Roasters Dubai Hills,462R+VGM Dubai Hills Mall - Ground Floor 325 - Hadaeq Sheikh Mohammed Bin Rashid - Dubai - United Arab Emirates,Other,4.7,20,2.0,cafe,,NO,5,23.14,57.86,2067.671875,,1034.43,Medium,0.0,0,0.06230529595015576,0.994535519125683,0.330233175670436,4.0,0.5785499999898758,0.478260869563138,0,0,0.0,0.0,0.5,0.1,1.0,STABLE,25.1021875,55.2413125,ChIJD6lsRwRvXz4RAOStqILP1X4
ZAHRET ELBON ELBARZILY ROASTRY,42 28th St - Hor Al Anz East - Deira - Dubai - United Arab Emirates,Deira,4.5,148,2.0,Unknown,,NO,0,40.0,100.0,3159.42724609375,90.0,1788.0,High,0.0,0,0.13590449954086317,1.0,-0.10619884881071792,148.0,0.9999999999825,0.08695652173875237,0,0,0.704,0.3436277055186325,0.8,0.0,0.0,DECLINING,25.2803358,55.3534709,ChIJuf0WUyVdXz4RsktJvcaztCk
Mokha 1450 Coffee Boutique,365 Al Wasl Rd - Al Bada' - Dubai - United Arab Emirates,Al Wasl,4.6,491,2.0,cafe,,NO,5,40.0,100.0,3321.885986328125,140.0,1788.0,High,2.0,0,0.6648612051455653,0.9523809523809523,0.358233855828663,98.2,0.9999999999825,0.30434782608563327,0,0,0.9421818181818182,0.08304534258837054,1.0,0.0,2.0,GROWING,25.214152799999997,55.258850699999996,ChIJgTDKykJCXz4RskTLO5HhE7M
Flava Coffee Co.,Dubai Investment Park - 1 - Opposite Landscape Elements - Warehouse #1 - مجمع دبي للاستثمار الأول - دبي - United Arab Emirates,Other,4.7,17,2.0,cafe,,NO,0,15.14,37.86,2876.388671875,,676.83,Low,2.0,0,0.0529595015576324,0.994535519125683,0.330233175670436,17.0,0.3785499999933758,0.478260869563138,0,0,0.0,0.0,0.5,0.1,1.0,STABLE,24.977716899999997,55.1608775,ChIJTXzcHx1zXz4Rq6Zi-60ExeU
Roasteria,F1 and F2 - Warehouse Number - Street-13 - Al Qouz Ind.first - Al Quoz - Dubai - United Arab Emirates,Al Quoz,4.9,14,2.0,Unknown,,NO,1,37.71,94.29,2883.401611328125,110.0,1685.74,High,0.0,0,0.058577405857740586,1.0,1.5396311685014374,14.0,0.9428249999835012,0.17391304347750475,0,0,0.0,0.0,0.5,0.1,1.0,STABLE,25.141037599999997,55.230312899999994,ChIJlaXwvs9rXz4RLsUc1yrUO1c
Mattina Coffee - ROYAL PURPLE ROASTRY L.L.C,Dubai Investment Park - 1 - Dubai Investment Park First - Dubai - United Arab Emirates,Other,4.8,63,2.0,cafe,,NO,0,16.86,42.14,2860.364501953125,,753.57,Low,0.0,0,0.19626168224299065,0.994535519125683,0.6967114559876235,63.0,0.4214499999926242,0.478260869563138,0,0,0.0,0.0,0.5,0.1,1.0,STABLE,24.9894002,55.158553299999994,ChIJt3knTL1yXz4RJYm1iQ_puTI
MR.KUNAFA,مقابل مطعم عروس دمشق - Al Muraqqabat - Deira - Dubai - United Arab Emirates,Deira,4.6,1089,2.0,dessert,,NO,2,40.0,100.0,3327.696044921875,90.0,1788.0,High,4.0,0,1.0,1.0,0.26549712202679476,544.5,0.9999999999825,0.08695652173875237,0,0,0.0,0.0,0.5,0.1,1.0,STABLE,25.2681819,55.3213478,ChIJ39K4rf9dXz4RuurnoHherIg
Choco Crepe,6A St - behind box park - Al Wasl - Dubai - United Arab Emirates,Al Wasl,4.8,133,2.0,cafe,dessert,YES,4,40.0,100.0,3276.218994140625,140.0,1788.0,High,3.0,0,0.18009478672985782,0.9523809523809523,0.5329820781841085,33.25,0.9999999999825,0.30434782608563327,0,0,0.9835,0.03689512162874655,1.0,0.0,4.0,GROWING,25.203481,55.2526483,ChIJBbDH10BDXz4RvSQMPKwqkLA
"SAID DAL 1923 - City Walk, Dubai",City Walk - Al Wasl - Dubai - United Arab Emirates,City Walk,4.6,2241,2.5,dessert,italian,YES,9,40.0,100.0,3310.637451171875,240.0,1788.0,High,2.0,0,1.0732758620689655,1.0,-0.2638796982801305,249.0,0.9999999999825,0.7391304347793951,0,0,0.9418857142857142,0.08615969984598956,1.0,0.0,2.0,GROWING,25.207778299999998,55.263405,ChIJKY9QccNDXz4RyrnWLH1LCE0
BABA ROMA,Burj Khalifa - Downtown Dubai - Dubai - United Arab Emirates,Downtown Dubai,4.7,772,2.0,cafe,dessert,YES,7,40.0,100.0,3327.620361328125,250.0,1788.0,High,3.0,0,0.9437652811735942,0.9622641509433961,0.12080948262067528,110.28571428571429,0.9999999999825,0.7826086956487713,0,0,0.9216,0.17530772943598352,1.0,0.0,2.0,GROWING,25.1938264,55.2695715,ChIJuxISVwBpXz4RMU8MnFkkIUc
Molten Chocolate Cafe Dubai Hills Mall,Al Khail Rd - Hadaeq Sheikh Mohammed Bin Rashid - Dubai - United Arab Emirates,Other,4.5,498,2.0,cafe,dessert,YES,4,23.71,59.29,2817.204833984375,,1059.94,Medium,1.0,0,1.5514018691588785,0.994535519125683,-0.4027233849639424,124.5,0.5928249999896261,0.478260869563138,0,0,0.0,0.0,0.5,0.1,1.0,STABLE,25.100275699999997,55.240055399999996,ChIJD9lt-QtvXz4RJT8wpWFs110
Milk Bakery,Wasl 51 building - Al Wasl Rd - Jumeirah - Jumeirah 1 - Dubai - United Arab Emirates,Jumeirah,4.5,1734,2.0,dessert,cafe,YES,5,40.0,100.0,3214.366943359375,160.0,1788.0,High,3.0,0,1.6713253012048193,0.972972972972973,-0.6075142245760097,346.8,0.9999999999825,0.39130434782438567,0,0,0.96,0.08944271909999157,1.0,0.0,2.0,GROWING,25.217624999999998,55.2603041,ChIJ8UfEMGZDXz4RRvFHUX96V_E
The Choco Monarch,"Sharjah Palace Hotel, Lobby Level - شارع التعاون - near Sharjah Expo - الخالدية - إمارة الشارقةّ - United Arab Emirates",Deira,4.6,1235,2.0,cafe,dessert,YES,2,40.0,100.0,3327.696044921875,90.0,1788.0,High,3.0,0,1.1340679522497705,1.0,0.26549712202679476,617.5,0.9999999999825,0.08695652173875237,0,0,0.557,0.791909085691028,0.8,0.2,1.5,GROWING,25.3058321,55.365564799999994,ChIJ_cFzuVRbXz4RUqnxlBZNvlk
Chocoberry London - Downtown Dubai,Boulevard Central Tower 1 - Sheikh Mohammed bin Rashid Blvd - Burj Khalifa - Downtown Dubai - Dubai - United Arab Emirates,Downtown Dubai,4.8,322,2.0,cafe,dessert,YES,9,40.0,100.0,3345.652099609375,250.0,1788.0,High,1.0,0,0.39364303178484106,0.9622641509433961,0.5609011693102781,35.77777777777778,0.9999999999825,0.7826086956487713,0,0,1.0,0.0,1.0,0.0,2.0,GROWING,25.1911165,55.273400699999996,ChIJayexQ7tpXz4RmUXbPgdT0Co
Ladurée,"Fashion Avenue 1st Floor, The Dubai Mall - Financial Ctr St - Burj Khalifa - Downtown Dubai - Dubai - United Arab Emirates",Downtown Dubai,4.8,1236,2.0,dessert,,NO,46,40.0,100.0,3354.63671875,250.0,1788.0,High,1.0,0,1.511002444987775,0.9622641509433961,0.5609011693102781,26.869565217391305,0.9999999999825,0.7826086956487713,0,0,0.7506,0.5576753535884474,0.8,0.2,2.0,GROWING,25.196049499999997,55.277947499999996,ChIJjcX9hYFCXz4RSLXOLmSk1A0
ONE DEGREE WINTER CAFE,Mushrif Park - Mushraif - Dubai - United Arab Emirates,Other,4.1,1703,2.0,cafe,,NO,0,6.29,15.71,1778.937866210938,,281.06,Low,2.0,0,5.305295950155763,0.994535519125683,-1.868636506232699,1703.0,0.15717499999724888,0.478260869563138,0,0,0.8049285714285714,0.374349469760816,0.8,0.0,2.0,GROWING,25.220579599999997,55.456385999999995,ChIJqQn6Y_aD9T4RgIGU5gIr_34
Baskin Robbins,Aspin Commercial Tower - 3203 Sheikh Zayed Rd - Trade Center First - Dubai - United Arab Emirates,Sheikh Zayed Road,4.5,506,2.0,dessert,,NO,16,40.0,100.0,3279.29638671875,190.0,1788.0,High,0.0,0,0.5584988962472406,1.0,-0.07117482792171599,31.625,0.9999999999825,0.5217391304325142,0,0,0.0,0.0,0.5,0.1,1.0,STABLE,25.2089563,55.2726252,ChIJzfovzm5DXz4R5qjKe91f46E
"Risen Café and Artisanal Bakery, Waterfront",Marasi Dr - Business Bay - Dubai - United Arab Emirates,Business Bay,4.9,866,2.0,cafe,dessert,YES,1,38.86,97.14,3305.975830078125,180.0,1736.97,High,2.0,1,2.154228855721393,1.0,1.04459133669534,866.0,0.9714499999829993,0.478260869563138,0,0,0.0,0.0,0.5,0.1,1.0,STABLE,25.1829288,55.283125999999996,ChIJ-6rah9ZpXz4RQZhns73vRqk
Godiva - Dubai Mall,"Ground Floor, 091 - GF Financial Ctr St - Burj Khalifa - Downtown Dubai - Dubai - United Arab Emirates",Downtown Dubai,4.8,624,2.0,cafe,dessert,YES,48,40.0,100.0,3354.63671875,250.0,1788.0,High,1.0,0,0.7628361858190709,0.9622641509433961,0.5609011693102781,13.0,0.9999999999825,0.7826086956487713,0,0,1.0,0.0,1.0,0.0,2.0,GROWING,25.195280999999998,55.2791595,ChIJVaL1CXppXz4Rh5-p33aDyJs
The Inventing Room,Mall - Crescent Dr - Al Kheeran - Dubai Festival City - Dubai - United Arab Emirates,Other,4.2,42,2.0,cafe,dessert,YES,0,39.43,98.57,3319.433837890625,,1762.49,High,0.0,0,0.1308411214953271,0.994535519125683,-1.5021582259155084,42.0,0.9857249999827495,0.478260869563138,0,0,0.0,0.0,0.5,0.1,1.0,STABLE,25.2228617,55.3523771,ChIJHdmC1xNqXz4R2IM6kHeMZwk
Home Bakery Dubai Mall,The Dubai Mall Fashion Avenue - 1st Floor - Burj Khalifa - Downtown Dubai - Dubai - United Arab Emirates,Downtown Dubai,4.2,1099,2.0,cafe,dessert,YES,42,40.0,100.0,3354.63671875,250.0,1788.0,High,2.0,0,1.343520782396088,0.9622641509433961,-2.079648950827347,26.166666666666668,0.9999999999825,0.7826086956487713,0,0,0.7363999999999999,0.36335217076549853,1.0,0.0,4.0,GROWING,25.197546400000004,55.2764252,ChIJs5IFBoJCXz4Ry0iMlVYG5vI
CHOCOMELT DUBAI MALL,"Fashion Avenue, Dubai Mall - 2nd Floor - Burj Khalifa - Downtown Dubai - Dubai - United Arab Emirates",Downtown Dubai,4.3,1445,2.0,cafe,dessert,YES,42,40.0,100.0,3354.63671875,250.0,1788.0,High,1.0,0,1.7665036674816625,0.9622641509433961,-1.6395572641377438,34.404761904761905,0.9999999999825,0.7826086956487713,0,0,0.968,0.07155417527999325,1.0,0.0,2.0,GROWING,25.1970812,55.2769717,ChIJH9aegGFtXz4R3v8YKdyss88
Arte Fine Art Cakes & Coffee Shop - Dubai Mall,Dubai Mall Dubai Mall Lower Ground - Burj Khalifa - Downtown Dubai - Dubai - United Arab Emirates,Downtown Dubai,4.9,198,2.0,cafe,,NO,47,40.0,100.0,3354.63671875,250.0,1788.0,High,0.0,0,0.24205378973105135,0.9622641509433961,1.0009928559998849,4.212765957446808,0.9999999999825,0.7826086956487713,0,0,1.0,0.0,1.0,0.0,0.0,DECLINING,25.1952435,55.279229099999995,ChIJyXwRJVdpXz4RBav8KZYDH2E
One degree cafe,شارع شاطئ جميرة - Umm Suqeim Second - Umm Suqeim 2 - Dubai - United Arab Emirates,Umm Suqeim,4.3,497,2.0,cafe,,NO,2,32.57,81.43,2907.912841796875,150.0,1455.91,Medium,2.0,0,1.0923076923076922,0.9473684210526315,-1.1094003924504596,248.5,0.8142749999857505,0.3478260869550095,0,0,0.754,0.30013330371686514,1.0,0.0,0.6666666666666666,STABLE,25.153758999999997,55.2026604,ChIJofGajEBqXz4Rb5kgnPbX55U
Hafiz Mustafa 1864 The Dubai Mall,"The Dubai Mall, LG Floor 093 - برج خليفة - وسط مدينة دبي - دبي - United Arab Emirates",Dubai Mall,4.9,28873,3.0,dessert,cafe,YES,42,40.0,100.0,3354.63671875,300.0,1788.0,High,0.0,0,23.881720430107528,1.0,0.9101712108771729,687.452380952381,0.9999999999825,0.9999999999956523,1,0,0.9120000000000001,0.19677398201998147,1.0,0.0,2.0,GROWING,25.1968164,55.276984399999996,ChIJ91SSJcBpXz4Rz-BiHWoLqCk
L'ETO,City Walk Mall - 16 Dubai Al Safa Road - Al Wasl - Dubai - United Arab Emirates,City Walk,4.6,4394,3.0,Unknown,,NO,7,40.0,100.0,3321.885986328125,240.0,1788.0,High,4.0,0,2.1044061302681993,1.2,-0.2638796982801305,627.7142857142857,0.9999999999825,0.7391304347793951,1,0,0.96,0.08944271909999157,1.0,0.0,4.0,GROWING,25.208714399999998,55.2611887,ChIJy9KR0mVCXz4RIrAZx_BAWuM
Yann Couvreur Pâtisserie - Dubai | One Central,"Ground Floor, Offices 3 Building - One Central - المركز التجاري الثانية - دبي - United Arab Emirates",Other,4.3,481,2.0,dessert,,NO,4,40.0,100.0,3312.6767578125,,1788.0,High,0.0,0,1.4984423676012462,0.994535519125683,-1.1356799455983206,120.25,0.9999999999825,0.478260869563138,0,0,0.375,0.6128825336065631,0.4,0.2,2.0,GROWING,25.2207052,55.2850414,ChIJ526JAHtDXz4RhtqJtq9VJ_o
Dlish Difc,Zaa'beel Second - DIFC - Dubai - United Arab Emirates,DIFC,4.5,414,3.0,cafe,dessert,YES,15,40.0,100.0,3315.0224609375,220.0,1788.0,High,2.0,0,1.0615384615384615,1.0,-0.15825813436860076,27.6,0.9999999999825,0.6521739130406428,1,0,0.5683636363636364,0.7703037932428332,0.8,0.2,2.0,GROWING,25.208453,55.2777524,ChIJDzbetYJDXz4RdYag8dFSm5Q
Mondoux,21 Sheikh Mohammed bin Rashid Blvd - Burj Khalifa - Downtown Dubai - Dubai - United Arab Emirates,Downtown Dubai,4.8,2889,2.0,cafe,dessert,YES,36,40.0,100.0,3354.63671875,250.0,1788.0,High,2.0,0,3.531784841075795,0.9622641509433961,0.5609011693102781,80.25,0.9999999999825,0.7826086956487713,0,0,1.0,0.0,1.0,0.0,2.0,GROWING,25.1945552,55.2816646,ChIJqU3mQsFpXz4RLzOKv9UNtcw
Muse Dessert Cafe,Al Asayel St - Al Qouz Ind.second - Al Quoz - Dubai - United Arab Emirates,Al Quoz,4.5,42,2.0,dessert,cafe,YES,1,40.0,100.0,2933.0029296875,110.0,1788.0,High,1.0,0,0.17573221757322174,1.0,-0.20334751282094532,42.0,0.9999999999825,0.17391304347750475,0,0,0.0,0.0,0.5,0.1,1.0,STABLE,25.140854599999997,55.241727499999996,ChIJ09qhSDFpXz4RzpDbChc_6xk
Ladurée Dubai Mall Fashion Avenue,Fashion Avenue extention - Laduree Dubai Mall Restaurant- Ground Floor - برج خليفة - وسط مدينة دبي - دبي - United Arab Emirates,Dubai Mall,4.7,5315,3.0,dessert,french,YES,33,40.0,100.0,3354.63671875,300.0,1788.0,High,2.0,0,4.396195202646815,1.0,-0.2770086293974016,161.06060606060606,0.9999999999825,0.9999999999956523,1,0,1.0,0.0,1.0,0.0,2.0,GROWING,25.1986375,55.2752907,ChIJRe9ELChoXz4RI6SgVv5w3fs
Home Bakery,Galleria Mall - Al Wasl Rd - Al Wasl - Jumeirah 1 - Dubai - United Arab Emirates,Jumeirah,4.3,2516,3.0,cafe,dessert,YES,3,40.0,100.0,3276.218994140625,160.0,1788.0,High,4.0,0,2.4250602409638553,1.4594594594594597,-1.5381743132881958,838.6666666666666,0.9999999999825,0.39130434782438567,1,0,0.0,0.0,0.5,0.1,1.0,STABLE,25.2070534,55.2543486,ChIJzzQCUWlCXz4RGmxlehdTvPA
VINCI DOLCI,The Beach - مرسى دبي - مساكن شاطئ جميرا - دبي - United Arab Emirates,Other,4.5,172,2.0,dessert,,NO,7,40.0,100.0,2982.892822265625,,1788.0,High,0.0,0,0.5358255451713395,0.994535519125683,-0.4027233849639424,24.571428571428573,0.9999999999825,0.478260869563138,0,0,0.0,0.0,0.5,0.1,1.0,STABLE,25.0755388,55.1308711,ChIJt23iEhsVXz4RzRB4s-SmaaQ
Hampstead Bakery and Cafe,"Downtown Kitchens Shop No FV-BF-FH-26, Ground Floor - Fountain Views - بوليفارد الشيخ محمد بن راشد - برج خليفة - وسط مدينة دبي - دبي - United Arab Emirates",Downtown Dubai,4.3,711,2.0,cafe,dessert,YES,34,40.0,100.0,3354.63671875,250.0,1788.0,High,1.0,0,0.8691931540342298,0.9622641509433961,-1.6395572641377438,20.91176470588235,0.9999999999825,0.7826086956487713,0,0,0.504,0.6456721304191471,0.6,0.4,2.0,GROWING,25.1940387,55.281126799999996,ChIJawtHeNBpXz4R7HN88Y8c3-8
Limited,Al Qudra Lake Road - Saih Al Salam - Dubai - United Arab Emirates,Other,4.0,321,2.0,cafe,,NO,0,8.0,20.0,843.5659790039062,,357.6,Low,1.0,0,1.0,0.994535519125683,-2.235114786549887,321.0,0.1999999999965,0.478260869563138,0,0,0.8457142857142858,0.1572726736516901,1.0,0.0,2.0,GROWING,24.8499436,55.3483087,ChIJu0-8EQCDXz4RI5xuNUoQosk
SESAME LOUNGE,Difc Gate avenue 4 - زعبيل الثانية - DIFC - دبي - United Arab Emirates,DIFC,4.0,324,3.0,cafe,,NO,11,40.0,100.0,3369.748291015625,220.0,1788.0,High,3.0,0,0.8307692307692308,1.0,-1.8538810026036021,29.454545454545453,0.9999999999825,0.6521739130406428,1,0,0.0,0.0,0.5,0.1,1.0,STABLE,25.207801999999997,55.2770624,ChIJeX6Ofn5pXz4Ra2j8tPtzzf8
Crepe & Go,Jumeirah - Jumeirah 1 - Dubai - United Arab Emirates,Jumeirah,4.7,267,2.0,dessert,,NO,2,40.0,100.0,3247.066162109375,160.0,1788.0,High,0.0,0,0.25734939759036146,0.972972972972973,0.32314586413617635,133.5,0.9999999999825,0.39130434782438567,0,0,0.0,0.0,0.5,0.1,1.0,STABLE,25.2163149,55.2527932,ChIJbb-HVrdDXz4RP1p9E1L2xWA
Dubai Sweet Factory by Kadayifzade,"Lower Ground Floor, Dubai Mall - Burj Khalifa - Downtown Dubai - Dubai - United Arab Emirates",Downtown Dubai,4.7,213,2.0,dessert,,NO,42,40.0,100.0,3354.63671875,250.0,1788.0,High,0.0,0,0.2603911980440098,0.9622641509433961,0.12080948262067528,5.071428571428571,0.9999999999825,0.7826086956487713,0,0,0.96,0.08944271909999157,1.0,0.0,0.6666666666666666,STABLE,25.197105699999998,55.2760537,ChIJ8ZUG3nlDXz4R_jmCRqMYHuQ
8th Cafe,Margham - Dubai - United Arab Emirates,Other,4.7,167,2.0,cafe,,NO,0,0.86,2.14,440.6872863769531,,38.37,Low,2.0,0,0.5202492211838006,0.994535519125683,0.330233175670436,167.0,0.02144999999962425,0.478260869563138,0,0,1.0,0.0,1.0,0.0,2.0,GROWING,24.9199292,55.5256494,ChIJE7pbcZ9_9T4R0fo5Xr3L7lc
BRIX Journey,"Shop 02, Jumeirah Fishing Harbour 1, Near Omnia Gourmet - شارع العروبة - جميرا الأولى - دبي - United Arab Emirates",Jumeirah,4.7,170,2.0,dessert,,NO,1,38.86,97.14,3302.758056640625,160.0,1736.97,High,0.0,0,0.163855421686747,0.972972972972973,0.32314586413617635,170.0,0.9714499999829993,0.39130434782438567,0,0,1.0,0.0,1.0,0.0,1.5,GROWING,25.2102473,55.24346440000001,ChIJT1FtXgVDXz4RnXQs03AAQ_4
Sugar Bae,"Jumeira 1, beach road, near - Al Ijaza cafeteria - جميرا - جميرا ١ - دبي - United Arab Emirates",Other,4.4,117,2.0,dessert,,NO,1,39.43,98.57,3302.758056640625,,1762.49,High,0.0,0,0.3644859813084112,0.994535519125683,-0.7692016652811299,117.0,0.9857249999827495,0.478260869563138,0,0,0.568,0.762312271972582,0.8,0.2,0.0,DECLINING,25.213089399999998,55.2486142,ChIJj6C6w85DXz4R_GEK1KpD9h4
jones the grocer Dusit Thani Hotel,Dusit Thani Dubai - 133 Sheikh Zayed Rd - Trade Center Second - DIFC - Dubai - United Arab Emirates,Sheikh Zayed Road,4.8,3384,2.0,dessert,cafe,YES,10,40.0,100.0,3330.054443359375,190.0,1788.0,High,3.0,0,3.7350993377483444,1.0,0.8256280038919082,338.4,0.9999999999825,0.5217391304325142,0,0,0.0,0.0,0.5,0.1,1.0,STABLE,25.206449400000004,55.272896599999996,ChIJPWxKK4ZCXz4RTMTshoIOmK4
Sadeem al marmoom,Saih Al Dahal Street - Ghadeer Barashy - Dubai - United Arab Emirates,Other,4.2,613,2.0,Unknown,,NO,0,4.57,11.43,125.9111709594727,,204.31,Low,1.0,0,1.9096573208722742,0.994535519125683,-1.5021582259155084,613.0,0.11427499999800038,0.478260869563138,0,0,0.49400000000000005,0.5297924121766939,0.6,0.2,2.0,GROWING,24.8263328,55.3636815,ChIJ2ZR_fniDXz4RiOXRxJPZ0PY
Dubai Deserts Tours,673C+W8M Crystal Shine Meeting Point - Al Wasl - Dubai - United Arab Emirates,Al Wasl,1.0,1,2.0,dessert,,NO,9,40.0,100.0,3330.054443359375,140.0,1788.0,High,0.0,0,0.0013540961408259986,0.9523809523809523,-2.7872341465693524,0.1111111111111111,0.9999999999825,0.30434782608563327,0,0,0.0,0.0,0.5,0.1,1.0,STABLE,25.2048493,55.2707828,ChIJIx2Y9qdDXz4RyhWCaUE657E
Bonbon Café Angelo Musa,Marasi Dr - Business Bay - Dubai - United Arab Emirates,Business Bay,4.4,77,2.0,cafe,dessert,YES,3,40.0,100.0,3305.975830078125,180.0,1788.0,High,3.0,1,0.19154228855721392,1.0,-0.9316625435390875,25.666666666666668,0.9999999999825,0.478260869563138,0,0,0.9199999999999999,0.1095445115010332,1.0,0.0,1.5,GROWING,25.188428700000003,55.288972699999995,ChIJswrMMX9pXz4RZ5nv9lY6m70
Benne Confiserie - Dubai Mall,Fountain Views - G Floor - Burj Khalifa - Dubai Mall - Dubai - United Arab Emirates,Downtown Dubai,4.9,332,2.0,Unknown,,NO,26,40.0,100.0,3320.93310546875,250.0,1788.0,High,1.0,0,0.4058679706601467,0.9622641509433961,1.0009928559998849,12.76923076923077,0.9999999999825,0.7826086956487713,0,0,0.985,0.03354101966249685,1.0,0.0,0.0,DECLINING,25.195423800000004,55.282578799999996,ChIJ5_pnycZpXz4RYoJMU5fQek8
Alison Nelson’s Chocolate Bar,Level - G - Dubai Mall - near Dubai Ice Rink - Burj Khalifa - Downtown Dubai - Dubai - United Arab Emirates,Downtown Dubai,4.6,1202,2.0,dessert,,NO,46,40.0,100.0,3354.63671875,250.0,1788.0,High,0.0,0,1.4694376528117359,0.9622641509433961,-0.3192822040689315,26.130434782608695,0.9999999999825,0.7826086956487713,0,0,0.8800000000000001,0.2683281572999748,1.0,0.0,2.0,GROWING,25.1960235,55.2797811,ChIJ3_edgoJCXz4RwGxjIGymNzk
"The Farm Restaurant, Al Barari",Wadi Al Safa 3 - Al Barari - Dubai - United Arab Emirates,Other,4.4,11800,3.0,cafe,italian,YES,0,15.71,39.29,3161.185791015625,,702.34,Low,3.0,0,36.7601246105919,1.4918032786885247,-0.7692016652811299,11800.0,0.39282499999312614,0.478260869563138,1,0,0.8156153846153845,0.11190642223428515,1.0,0.0,2.0,GROWING,25.094472,55.310579,ChIJ5eRM1GNvXz4RbTaTNuyR1pA
ChocoDoh,"The Dubai Mall, Second level. Cinema Parking - شارع المركز المالي - برج خليفة - وسط مدينة دبي - دبي - United Arab Emirates",Dubai Mall,4.6,97,3.0,dessert,,NO,45,40.0,100.0,3354.63671875,300.0,1788.0,High,0.0,0,0.08023159636062861,1.0,-0.8705985495346915,2.1555555555555554,0.9999999999825,0.9999999999956523,1,0,1.0,0.0,1.0,0.0,1.5,GROWING,25.1952914,55.2800187,ChIJPZgTD19pXz4RrOFqcLQfN2U
Parker's,Dubai Mall - Burj Khalifa - Downtown Dubai - Dubai - United Arab Emirates,Downtown Dubai,4.7,7058,3.0,Unknown,,NO,46,40.0,100.0,3354.63671875,250.0,1788.0,High,3.0,0,8.62836185819071,1.4433962264150941,0.12080948262067528,153.43478260869566,0.9999999999825,0.7826086956487713,1,0,0.64,0.5286303056011828,0.8,0.0,2.0,GROWING,25.1958332,55.277654,ChIJn4T9KChoXz4RIc8qqHnWY2I
Next Door Kitchen,"Tower 1, North Promenade - الخيران الأولى - Dubai Creek Harbour - دبي - United Arab Emirates",Other,4.8,1626,2.0,cafe,,NO,2,27.14,67.86,2936.587158203125,,1213.23,Medium,1.0,0,5.065420560747664,0.994535519125683,0.6967114559876235,813.0,0.6785499999881257,0.478260869563138,0,0,0.0,0.0,0.5,0.1,1.0,STABLE,25.2060924,55.3431493,ChIJ2yTEDFJnXz4RM9hSeXc7w1w
Darbuneh Cafe,Jumeira St - Jumeirah - Jumeirah 2 - Dubai - United Arab Emirates,Jumeirah,4.3,543,2.0,cafe,,NO,1,33.14,82.86,3285.64599609375,160.0,1481.43,Medium,3.0,1,0.5233734939759036,0.972972972972973,-1.5381743132881958,543.0,0.8285499999855008,0.39130434782438567,0,0,1.0,0.0,1.0,0.0,2.0,GROWING,25.1987666,55.2386944,ChIJt7INs6FDXz4RMH-8wFqPTmc
Made Cafe & Eatery,Noora Tower Al Habtoor City - Business Bay - Dubai - United Arab Emirates,Business Bay,4.7,302,2.0,cafe,,NO,1,35.43,88.57,3346.41162109375,180.0,1583.69,High,2.0,1,0.7512437810945274,1.0,0.2540897846015684,302.0,0.8857249999844996,0.478260869563138,0,0,0.98375,0.024843258642939736,1.0,0.0,2.0,GROWING,25.1835334,55.2566731,ChIJV1AhZKFpXz4R-s6UPXgdZCY
FRNDS Restaurant,Dubai Dubai Mall - Ground Floor - Burj Khalifa - Downtown Dubai - Dubai - United Arab Emirates,Downtown Dubai,4.7,1187,2.0,french,japanese,YES,25,40.0,100.0,3320.93310546875,250.0,1788.0,High,2.0,1,1.4511002444987775,0.9622641509433961,0.12080948262067528,47.48,0.9999999999825,0.7826086956487713,0,0,0.96,0.08944271909999156,1.0,0.0,2.0,GROWING,25.195727500000004,55.2827555,ChIJf7FzoeppXz4RG-jlwrJM8DQ
Revo Cafè at Anantara The Palm Dubai Resort,Dubai - The Palm Jumeirah - Dubai - United Arab Emirates,Jumeirah,4.5,851,3.0,cafe,,NO,0,14.86,37.14,,160.0,664.17,Low,2.0,1,0.8202409638554217,1.4594594594594597,-0.6075142245760097,851.0,0.37144999999349926,0.39130434782438567,1,0,0.64,0.8049844718999243,0.8,0.2,4.0,GROWING,25.127901599999998,55.1541766,ChIJR0Zp-dtqXz4RSZfxlfbibqM
Dips Cafe,403 jumeirah st - Al Athar Street - جميرا - جميرا الثانية - دبي - United Arab Emirates,Jumeirah,4.4,1405,2.0,cafe,,NO,2,36.0,90.0,3285.64599609375,160.0,1609.2,High,2.0,0,1.3542168674698796,0.972972972972973,-1.0728442689321007,702.5,0.8999999999842501,0.39130434782438567,0,0,0.0,0.0,0.5,0.1,1.0,STABLE,25.1941809,55.2350214,ChIJBZ88e1tDXz4RinLoghyaNk4
Café Bateel - Dubai Mall,Unit 119 - Financial Ctr St - Burj Khalifa - Downtown Dubai - Dubai - United Arab Emirates,Downtown Dubai,4.4,2349,2.0,cafe,,NO,48,40.0,100.0,3354.63671875,250.0,1788.0,High,1.0,0,2.871638141809291,0.9622641509433961,-1.199465577448137,48.9375,0.9999999999825,0.7826086956487713,0,0,0.62,0.6340346993658943,0.8,0.2,2.0,GROWING,25.195055999999997,55.279176,ChIJURE7f-FDXz4R49TYzM0rhZU
NAC Dubai,H Residence - Al Wasl Rd - Al Safa 1 - Al Safa - Dubai - United Arab Emirates,Al Wasl,4.6,4850,2.0,Unknown,,NO,0,40.0,100.0,3090.875,140.0,1788.0,High,2.0,0,6.567366283006093,0.9523809523809523,0.358233855828663,4850.0,0.9999999999825,0.30434782608563327,0,0,0.96,0.08944271909999156,1.0,0.0,2.0,GROWING,25.177280099999997,55.233602,ChIJSQeEg_ZpXz4RfIgQtXQOBd0
L'ETO,"Dubai Dubai Mall - Sheikh Mohammed Bin Rashid Boulevard 3 Dubai Mall (Fashion Avenue), level 2 - برج خليفة - وسط مدينة دبي - دبي - United Arab Emirates",City Walk,4.7,7542,3.0,Unknown,,NO,7,40.0,100.0,3321.885986328125,240.0,1788.0,High,4.0,0,3.6120689655172415,1.2,0.219899748566769,1077.4285714285713,0.9999999999825,0.7391304347793951,1,0,0.7251428571428571,0.5007602383641603,0.8,0.0,2.0,GROWING,25.1970192,55.276833599999996,ChIJtXPneY9pXz4RUBPUXPdaOiA
Gran Caffe - The Dubai Mall,"Fashion Avenue / Level: Third Floor / Parking: P6, The Dubai Mall - Burj Khalifa - Downtown Dubai - Dubai - United Arab Emirates",Downtown Dubai,4.3,747,2.0,Unknown,,NO,45,40.0,100.0,3354.63671875,250.0,1788.0,High,2.0,0,0.91320293398533,0.9622641509433961,-1.6395572641377438,16.6,0.9999999999825,0.7826086956487713,0,0,0.0,0.0,0.5,0.1,1.0,STABLE,25.1965261,55.2772298,ChIJcWo6-tNpXz4RrKtfSuWtlTI
SMAT Resto-Cafe,Dubai Design District Building No. 10 - زعبيل الثانية - Dubai Design District - دبي - United Arab Emirates,D3 Design District,4.4,739,2.0,arabic,cafe,YES,4,32.0,80.0,3297.1923828125,180.0,1430.4,Medium,2.0,0,0.7266470009832842,1.0,-0.06503936072346016,184.75,0.799999999986,0.478260869563138,0,0,0.915,0.19006577808748218,1.0,0.0,2.0,GROWING,25.1895041,55.2978853,ChIJn6j44NxhXz4RuTOUd4_ilio
Di MARE Restaurant and Cafe,Sheikh Mohammed bin Rashid Blvd - Burj Khalifa - Downtown Dubai - Dubai - United Arab Emirates,Downtown Dubai,4.7,879,2.0,cafe,,NO,6,40.0,100.0,3327.620361328125,250.0,1788.0,High,1.0,0,1.0745721271393642,0.9622641509433961,0.12080948262067528,146.5,0.9999999999825,0.7826086956487713,0,0,0.8019999999999999,0.2793206043241351,1.0,0.0,2.0,GROWING,25.1968522,55.2706862,ChIJ5akli-VDXz4RU5zlnIfXkHE
BohoX,55 Sheikh Mohammed bin Rashid Blvd - Burj Khalifa - Downtown Dubai - Dubai - United Arab Emirates,Downtown Dubai,4.8,3336,2.0,Unknown,,NO,14,40.0,100.0,3354.63671875,250.0,1788.0,High,3.0,1,4.078239608801956,0.9622641509433961,0.5609011693102781,238.28571428571428,0.9999999999825,0.7826086956487713,0,0,1.0,0.0,1.0,0.0,2.0,GROWING,25.1915591,55.2762679,ChIJJRh7xZlDXz4RjV7zQr-X7dI
Harvest & Co - Dubai Garden Centre,Dubai Garden Centre - Ground floor - 739 Sheikh Zayed Rd - next to Lexus Showroom - Al Qouz Ind.third - Al Quoz - Dubai - United Arab Emirates,Sheikh Zayed Road,4.9,8684,2.0,cafe,,NO,1,39.43,98.57,2945.61865234375,190.0,1762.49,High,3.0,0,9.584988962472407,1.0,1.124562281163118,8684.0,0.9857249999827495,0.5217391304325142,0,0,1.0,0.0,1.0,0.0,2.0,GROWING,25.129622599999998,55.2120367,ChIJiwLd0lxrXz4RrByC2zfzx3I
Common Grounds - JBR,Unit 2404 - The Beach - مرسى دبي - مساكن شاطئ جميرا - دبي - United Arab Emirates,Other,4.8,1326,2.0,cafe,,NO,7,40.0,100.0,2927.522705078125,,1788.0,High,3.0,0,4.130841121495327,0.994535519125683,0.6967114559876235,189.42857142857142,0.9999999999825,0.478260869563138,0,0,0.0,0.0,0.5,0.1,1.0,STABLE,25.077029099999997,55.1323619,ChIJ1S4ywBEVXz4Ran5_aJWUi5Y
Cafe Gray Brasserie,"Dubai Hills Mall, Ground Floor, next to VIP Entrance 4 - Sharaf DG Parking - حدائق الشيخ محمد بن راشد - دبي - United Arab Emirates",Other,4.6,750,2.0,french,cafe,YES,4,23.71,59.29,2067.671875,,1059.94,Medium,1.0,0,2.336448598130841,0.994535519125683,-0.03624510464675482,187.5,0.5928249999896261,0.478260869563138,0,0,0.0,0.0,0.5,0.1,1.0,STABLE,25.1001916,55.2416524,ChIJofVhxqxvXz4RVDgVw4xeJ5c
Eggspectation Restaurant Cafe JBR,"Shop # 1406, Roxy Cinema Building - Marsa Dubai - Dubai Marina - Dubai - United Arab Emirates",Dubai Marina,4.5,6330,2.0,cafe,,NO,7,40.0,100.0,2927.522705078125,200.0,1788.0,High,2.0,0,7.544696066746126,1.0,-1.3138773634832626,904.2857142857143,0.9999999999825,0.5652173913018904,0,0,0.96,0.08944271909999157,1.0,0.0,2.0,GROWING,25.078362900000002,55.132815400000005,ChIJg3VLMqoUXz4RKlCnYjYgSqk
Boston Lane,Courtyard 25 - 4B St - Al Qouz Ind.first - Al Quoz - Dubai - United Arab Emirates,Al Quoz,4.1,976,2.0,cafe,,NO,4,36.0,90.0,2914.820068359375,110.0,1609.2,High,2.0,0,4.083682008368201,1.0,-1.946326194143328,244.0,0.8999999999842501,0.17391304347750475,0,0,0.9199999999999999,0.17888543819998318,1.0,0.0,1.5,GROWING,25.143522800000003,55.223216699999995,ChIJ41Ed_SpqXz4Rjugp_6PLflw
Society Dubai - Restaurant In Jumeirah 1,jumeirah st1 - جميرا ١ - دبي - United Arab Emirates,Jumeirah,4.7,8882,2.0,cafe,dessert,YES,1,40.0,100.0,3222.3671875,160.0,1788.0,High,3.0,0,8.560963855421686,0.972972972972973,0.32314586413617635,8882.0,0.9999999999825,0.39130434782438567,0,0,1.0,0.0,1.0,0.0,2.0,GROWING,25.2323006,55.26423630000001,ChIJ_dY7glNCXz4R9FAqFjxa30c
Bake My Day Dubai Dutch Bakery,The Beach Building JBR 51912 No. 1402 - مرسى دبي - دبي مارينا - دبي - United Arab Emirates,JBR,4.7,2701,2.0,cafe,dessert,YES,7,40.0,100.0,2927.522705078125,220.0,1788.0,High,2.0,0,1.0,1.0,0.0,385.85714285714283,0.9999999999825,0.6521739130406428,0,0,1.0,0.0,1.0,0.0,2.0,GROWING,25.0781432,55.133049299999996,ChIJr1EkTLAVXz4RGJ82-7BaK8o
Eggspectation Restaurant Cafe,City Walk - شارع الصفا - الوصل - دبي - United Arab Emirates,City Walk,4.5,2447,2.0,cafe,,NO,3,40.0,100.0,3310.637451171875,240.0,1788.0,High,3.0,0,1.1719348659003832,0.8,-0.7476591451270258,815.6666666666666,0.9999999999825,0.7391304347793951,0,0,0.8986666666666666,0.17323073886839166,1.0,0.0,2.0,GROWING,25.2022939,55.263187099999996,ChIJcWPmFHtCXz4RRjOvtj48M-I
La Farine,Sheikh Zayed Rd - Business Bay - Dubai - United Arab Emirates,Business Bay,4.5,541,2.0,dessert,,NO,1,36.0,90.0,3345.156982421875,180.0,1609.2,High,3.0,1,1.345771144278607,1.0,-0.5364117674922034,541.0,0.8999999999842501,0.478260869563138,0,0,1.0,0.0,1.0,0.0,1.5,GROWING,25.1856168,55.257978200000004,ChIJlU-HFNppXz4R3sBsOdJaIoQ
The Hamptons Cafe & Restaurant,Jumeira St - Umm Suqeim First - Umm Suqeim 1 - Dubai - United Arab Emirates,Umm Suqeim,4.5,3003,3.0,cafe,,NO,1,33.14,82.86,2996.413330078125,150.0,1481.43,Medium,2.0,0,6.6,1.4210526315789473,0.0,3003.0,0.8285499999855008,0.3478260869550095,1,0,0.0,0.0,0.5,0.1,1.0,STABLE,25.171450399999998,55.2168808,ChIJafDbs09qXz4RCHIcjR37BXg
CASSETTE,THE COURTYARD - 4B St - Al Qouz Ind.first - AL QUOZ 1 - Dubai - United Arab Emirates,Al Quoz,4.5,2398,2.0,cafe,french,YES,4,36.0,90.0,2914.820068359375,110.0,1609.2,High,3.0,0,10.03347280334728,1.0,-0.20334751282094532,599.5,0.8999999999842501,0.17391304347750475,0,0,0.0,0.0,0.5,0.1,1.0,STABLE,25.143565600000002,55.223267199999995,ChIJIxxfH1lrXz4RM6r4cMrnzZs
Common Grounds - DIFC,"Gate Building 5, Level 2 - زعبيل الثانية - DIFC - دبي - United Arab Emirates",DIFC,4.8,768,2.0,cafe,,NO,9,40.0,100.0,3315.0224609375,220.0,1788.0,High,1.0,0,1.9692307692307693,0.6666666666666666,0.8591155865723994,85.33333333333333,0.9999999999825,0.6521739130406428,0,0,0.72,0.6260990336999411,0.8,0.2,4.0,GROWING,25.214754,55.2803137,ChIJN2GD0WBDXz4R68UrP8rd25s
